매장명,주소,lat,lon
GS252테크노파크점,"경기 부천시 오정구 석천로345,  300동 114호(삼정동 365)",37.51826292,126.76388845
GS2538선휴게소점,"강원 양양군 현북면 동해대로1242, 38선휴게소 (잔교리 41-10, 38휴게소)",38.00414846,128.73283627
GS25CBS점,"서울 양천구 목동서로159-1 (목1동 917-1, CBS방송국1층)",37.52831065,126.87486792
GS25CJ대전HUB점,"대전 대덕구 대덕대로1447번길39, 1층 (문평동 140)",36.44932895,127.40708036
GS25CJ덕양SUB점,"경기 고양시 일산동구 성현로615 (사리현동 151-1, CJ대한통운)",37.69488283,126.84958684
GS25G서초연일점,"서울 서초구 남부순환로2451 (서초1동 1426-13, 연일주유소)",37.48257474,127.01849562
GS25G신사남서울점,"서울 서초구 나루터로83 (잠원동 13-6, 남서울주유소)",37.51617873,127.018938
GS25G여의도점,"서울 영등포구 은행로64, GS칼텍스內편의점(여의도동 10-1)",37.53035064,126.92556942
GS25KD사옥점,서울 성동구 왕십리로125 (성수동1가 656-292),37.54872267,127.0439634
GS25LG광화문점,"서울 종로구 새문안로58, 지하2층 (신문로2가 92, LG광화문빌딩)",37.56939613,126.97147733
GS25LG사이언스파크점,"서울 강서구 마곡중앙10로10, 지하1층 (마곡동 770, 엘지사이언스파크)",37.56410133,126.82870256
GS25LG유플러스용산점,"서울 용산구 한강대로32, 지하1층 (한강로3가 65-228, 엘지유플러스)",37.52377837,126.96347203
GS25R강동4점,"서울 강동구 구천면로200, 강동지사 4층 (천호동 419-3, 한국마사회)",37.54003642,127.12653161
GS25R강동5점,"서울 강동구 구천면로200, 마사회 강동지사 5층 (천호동 419-3)",37.54003642,127.12653161
GS25R도봉4점,"서울 도봉구 노해로67길14, 4층 (창동 8, 한국마사회)",37.65228704,127.04938016
GS25R도봉8점,"서울 도봉구 노해로67길14, 8층 (창동 8, 한국마사회창동지점)",37.65228704,127.04938016
GS25R서울강남4점,"서울 강남구 도산대로529, 4층 (청담동 125-17, KRA프라자)",37.5250955,127.05158476
GS25R선릉7점,"서울 강남구 테헤란로416, 마사회선릉지사 7층 (대치동 890-8, 연봉빌딩)",37.50502169,127.05179352
GS25R영등포4점,"서울 영등포구 영중로8길14, 4층 (영등포동3가 18, 영등포케이빌딩)",37.5181796,126.90713537
GS25R영등포6점,"서울 영등포구 영중로8길14, 6층 (영등포동3가 18, 영등포케이빌딩)",37.5181796,126.90713537
GS25R영등포8점,"서울 영등포구 영중로8길14, 8층 (영등포동3가 18, 마사회)",37.5181796,126.90713537
GS25R종로2점,"서울 종로구 난계로29길49, 2층 (숭인동 201-18)",37.57363484,127.02066398
GS25S6고려대역점,"서울 성북구 종암로지하 1, 6호선 고려대역 지하철역사 (종암동 29-18)",37.59041163,127.03591174
GS25S6공덕역점,"서울 마포구 백범로지하 200, 지하1층 (공덕동 439, 공덕역)",37.54351749,126.95192797
GS25S6광흥창역점,"서울 마포구 독막로지하 165, 6호 호선 광흥창역 (창전동 145-17)",37.54744215,126.93238573
GS25S6구산역점,"서울 은평구 연서로지하 137-1, 6호선 구산역 지하1층 1001호 (구산동)",37.61120489,126.91715841
GS25S6녹사평역점,"서울 용산구 녹사평대로지하 195, 지하 (용산동4가 4)",37.53444061,126.98559185
GS25S6대흥역점,"서울 마포구 대흥로지하 85, 6호 호선 대흥역 (대흥동 128-1)",37.54772106,126.94235176
GS25S6돌곶이역점,"서울 성북구 화랑로지하 243, 지하철 역사 (석관동 349-8, 6호선)",37.61055883,127.05709244
GS25S6동묘앞역점,서울 종로구 지봉로지하 24 (숭인동 316-3),37.57165724,127.01581079
GS25S6마포구청역점,"서울 마포구 월드컵로지하 190 (성산동 592, 마포구청역)",37.56339473,126.90335112
GS25S6망원역점,"서울 마포구 월드컵로지하 77 (망원동 378, 6호선망원역)",37.55604989,126.91001185
GS25S6보문역점,"서울 성북구 보문로지하 116 (보문동1가 127-1, 6호선 보문역역사)",37.58559262,127.01969212
GS25S6봉화산역점,"서울 중랑구 신내로지하 232, 지하철역사내 (신내동 643-1, 6호선)",37.61647813,127.09265318
GS25S6삼각지역점,"서울 용산구 한강대로지하 185, 지하3층 (한강로1가 228-1, 6호선 삼각지역)",37.53442196,126.97301013
GS25S6상수역점,"서울 마포구 독막로지하 85, 6호 호선 상수역 (상수동 309-10)",37.54811054,126.92264379
GS25S6상암DMC역2점,"서울 은평구 수색로지하 175, 6호선 디지털미디어시티역 지하1층 (증산동 223-25)",37.5774396,126.90213758
GS25S6상월곡역점,"서울 성북구 화랑로지하 157, 지하철 6호선 상월곡역 역사 내 (상월곡동 26-1)",37.60703041,127.04968461
GS25S6석계역점,"서울 노원구 화랑로지하 347-1, 월계동 석계역 6호선 (월계동 25-2)",37.61526759,127.06683087
GS25S6신당역점,"서울 중구 다산로지하 260, 지하  (흥인동 162-1, 신동역 6호선)",37.56756902,127.01611361
GS25S6안암역점,"서울 성북구 인촌로지하 89, 6호선 지하철 역사 내 (안암동5가 146-1)",37.58608696,127.02935512
GS25S6약수역점,"서울 중구 다산로지하 115, 지하층  (신당동 369-2, 약수역 6호선)",37.55505047,127.01035898
GS25S6역촌역점,"서울 은평구 서오릉로지하 63, 지하1층 1001호 (녹번동 153-31, 6호선 역촌역사무소)",37.6053696,126.92343801
GS25S6연신내역점,"서울 은평구 통일로지하 849, 6호선 연신내역 지하1층 1001호  (갈현동)",37.6189243,126.92082983
GS25S6월곡역점,"서울 성북구 월곡로지하 107, 6호선 월곡역 역사 (하월곡동 35-1)",37.60182751,127.04140428
GS25S6응암역점,"서울 은평구 증산로지하 477, 지하2층 2001호(6호선 응암역) (역촌동 85-41)",37.59927644,126.91532688
GS25S6이태원역점,"서울 용산구 이태원로지하 177, 이태원역 B1 1001호 (이태원동 119-23)",37.53454513,126.99465356
GS25S6증산역점,"서울 은평구 증산로지하 306, 6호선 증산역 지하1층 1001호 (증산동 199-8)",37.58372274,126.9092575
GS25S6창신역점,서울 종로구 지봉로지하 112 (창신동 20-8),37.57950922,127.01519797
GS25S6한강진역점,"서울 용산구 이태원로지하 287, 지하1층 (한남동 726-494, 6호선 한강진역)",37.54077822,127.00183455
GS25S6합정역점,"서울 마포구 양화로지하 45, 6호선 지하1층 편의점  (합정동)",37.54902647,126.91345262
GS25S6화랑대역점,"서울 노원구 화랑로지하 510, 지하철 역사 내 (공릉동 285-2)",37.61988307,127.08319843
GS25S6효창공원앞역점,"서울 용산구 백범로지하 287, 6호선 효창공원앞역 지하1층 (효창동)",37.53961476,126.9609671
GS25S8가락시장역점,"서울 송파구 송파대로지하 257, 8호선 지하철 역사 (가락동 184-23)",37.49292916,127.11805624
GS25S8강동구청역점,"서울 강동구 올림픽로지하 550, 8호선 지하철 역사 내 (성내동)",37.53066612,127.1205538
GS25S8몽촌토성역점,"서울 송파구 올림픽로지하 383, 신천동 8호선 지하철 역사 (신천동 19)",37.51695061,127.11073742
GS25S8문정역점,서울 송파구 장지동56번지 8호선 지하철 역사 내부,37.48412198,127.13706552
GS25S8복정역점,서울 송파구 장지동600 8호선지하철역사 내,37.47231845,127.12852993
GS25S8석촌역점,"서울 송파구 송파대로지하 439, 8호선 지하철 역사 (석촌동 209)",37.50680082,127.10545134
GS25S8송파역점,"서울 송파구 송파대로지하 354, (8호선 지하철 역사내) (가락동 459-4)",37.4997426,127.11223083
GS25S8암사역점,"서울 강동구 올림픽로지하 776, 지하철 8호선 암사역 역사 내 (암사동 501)",37.55115868,127.12818997
GS25S8장지역점,서울 송파구 송파대로지하 82 (장지동 201-5),37.47764679,127.12650077
GS25S9가양역점,서울 강서구 양천로지하 485 (가양동 14-61),37.56175445,126.85398007
GS25S9개화역점,"서울 강서구 개화동로8길38, 내 지하층 (개화동 388-1, 개화역사)",37.58043969,126.79495756
GS25S9고속터미널역점,서울 서초구 신반포로지하 188 (반포동 19-11),37.50480652,127.00482457
GS25S9공항시장역점,"서울 강서구 방화동로지하 30 (공항동 산20-2, 공항시장역내)",37.56351488,126.81060139
GS25S9구반포역점,"서울 서초구 신반포로지하 17, 구반포역 역사 내 (반포동 817)",37.50162889,126.98611511
GS25S9국회의사당역점,"서울 영등포구 국회대로지하 758, 지하철역 (여의도동 1-6)",37.52740293,126.91851807
GS25S9김포공항역점,"서울 강서구 하늘길지하 77, 김포공항역 지하 (방화동 886)",37.56680295,126.80251229
GS25S9노들역점,"서울 동작구 노량진로지하 238, 노들역 역사 내 (본동 475-1)",37.514267,126.95367195
GS25S9노량진역점,서울 동작구 노량진로지하 130 (노량진동 60-11),37.51350473,126.94093448
GS25S9당산역점,"서울 영등포구 양평로지하 40, 당산역 내부  (당산동6가 227-1)",37.53381048,126.90204204
GS25S9동작역점,서울 동작구 현충로지하 220 (동작동 326),37.50308377,126.97823498
GS25S9등촌역점,"서울 강서구 공항대로지하 529 (등촌동 666-94, 등촌역 내)",37.55112705,126.86473566
GS25S9마곡나루역점,"서울 강서구 마곡중앙5로지하 2 (마곡동 760-3, 마곡나루역내)",37.56679254,126.82750583
GS25S9봉은사역점,"서울 강남구 봉은사로지하 601, , 9호선봉은사역 내 (삼성동 111-8)",37.51442446,127.06028283
GS25S9사평역점,서울 서초구 사평대로지하 285 (반포동 128-7),37.50398219,127.01397412
GS25S9삼성중앙역점,서울 강남구 봉은사로지하 501 (삼성동 111-147),37.51164542,127.04855386
GS25S9삼전역점,"서울 송파구 백제고분로187 (잠실동 250-5, 파크인-수)",37.50477315,127.0877409
GS25S9샛강역점,서울 영등포구 의사당대로지하 166 (여의도동 5-6),37.51714398,126.92983115
GS25S9석촌역점,"서울 송파구 송파대로지하 439, 지하철9호선 석촌역 (석촌동 209)",37.50680082,127.10545134
GS25S9선유도역점,"서울 영등포구 양평로지하 124, 선유도역 내부 (양평동5가 66-1)",37.53852935,126.89404085
GS25S9송파나루역점,"서울 송파구 송파동3, 지하철 9호선 송파나루역",37.50966154,127.11200026
GS25S9신논현역점,"서울 강남구 봉은사로지하 102, 9호선 신논현역 지하 상가 (역삼동)",37.50662704,127.03197969
GS25S9신목동역점,"서울 양천구 목동중앙로지하 217 (목동 136-2, 신목동역 내)",37.5446684,126.8828716
GS25S9신반포역점,"서울 서초구 신반포로지하 105, 신반포역 역사 내 (반포동 128-1)",37.50373883,126.99684249
GS25S9신방화역점,"서울 강서구 방화대로지하 301 (방화동 217-156, 신방화역 내)",37.56745253,126.81599481
GS25S9양천향교역점,서울 강서구 양천로지하 341 (가양동 159-3),37.5686537,126.8407887
GS25S9언주역점,"서울 강남구 봉은사로지하 201, 지하 1층 926-1호  (논현동 279-165, 9호선 언주역)",37.50748345,127.03423077
GS25S9여의도역점,서울 영등포구 의사당대로지하 101 (여의도동 2-6),37.52280338,126.92298519
GS25S9염창역점,서울 강서구 공항대로지하 631 (염창동 284-84),37.54706406,126.87516324
GS25S9올림픽공원역점,서울 송파구 방이동88-26 지하철9호선 올림픽공원역 B1층,37.51619484,127.13024844
GS25S9종합운동장역점,"서울 송파구 올림픽로지하 23, 9호선 종합운동장역 역사 (잠실동 122)",37.51110199,127.07428261
GS25S9중앙보훈병원역점,서울 강동구 둔촌동6-3 9호선 중앙보훈병원역 B1층,37.52913299,127.1486533
GS25S9증미역점,"서울 강서구 양천로지하 560 (등촌동 666-40, 증미역내)",37.55753886,126.86155986
GS25S9한성백제역점,"서울 송파구 위례성대로51, 지하철9호선 한성백제역 지하1층 (방이동 88-21)",37.5177242,127.1165654
GS25S9흑석역점,"서울 동작구 현충로지하 90, 9호선 흑석역 역사내 (흑석동 4)",37.50851093,126.96407906
GS25SH상암1호점,"서울 마포구 월드컵북로434, 107호 (상암동 1590, 상암ITTower)",37.58161346,126.88601067
GS25SI타워점,"서울 강남구 테헤란로203, 1층 (역삼동 679-4)",37.50158291,127.03771103
GS25S가산디지털단지역점,"서울 금천구 벚꽃로309, 7호선 가산디지털단지역 내 상가 3002 (가산동 468-4)",37.48228276,126.88218427
GS25S강남구청역점,서울 강남구 삼성동1 7호선강남구청역내,37.51697895,127.04177805
GS25S강남역1호점,"서울 강남구 강남대로390, 지하1층 9호 (역삼동 825, 미진프라자)",37.49784131,127.02863248
GS25S강남역2호점,"서울 강남구 강남대로390, B3층 38호  (역삼동 825)",37.49784131,127.02863248
GS25S강남역3호점,"서울 강남구 강남대로390, 지하3층 (역삼동 825, 신분당선)",37.49784131,127.02863248
GS25S건대입구역점,"서울 광진구 능동로지하 110, 지하3층 X-22,23호 (화양동 6-3)",37.5405514,127.07007128
GS25S고속터미널역점,서울 서초구 반포동19-3 7호선고속버스터미널,37.5043539,127.00350728
GS25S공덕역점,"서울 마포구 마포대로지하 92, 지하3층 (도화동 25-13, 공덕역)",37.54273987,126.95162201
GS25S공릉역점,"서울 노원구 동일로지하 1074, 내 (공릉동 385-4, 7호선공릉역)",37.62589057,127.07250969
GS25S군자역점,"서울 광진구 능동로277, 지하1층 (군자동 1-9, 군자역내)",37.55479468,127.07781684
GS25S김포공항역점,"서울 강서구 하늘길지하 77, 내 (방화동 886, 김포공항역사)",37.56680295,126.80251229
GS25S남구로역점,"서울 구로구 도림로지하 7, 7호선 남구로역 내 상가 1001 (구로동 801-95)",37.48491217,126.88678103
GS25S남성역점,"서울 동작구 사당로14가길19, 사당동, 7호선 남성역 내 (사당동 250-1)",37.4841919,126.9713349
GS25S내방역점,"서울 서초구 서초대로지하 103 (방배동 874-16, 7호선내방역내)",37.48829048,126.99315923
GS25S노원역점,"서울 노원구 동일로지하 1409, 713동 1016호 (상계동 729, 노원역 7호선)",37.6536486,127.06075233
GS25S논현역점,"서울 강남구 학동로지하 102, 지하1층, GS25 S논현역점(논현역 상가1004) (논현동 279-67)",37.51419073,127.03135035
GS25S당산역1호점,"서울 영등포구 양평로지하 40, 내선8번 2호선 당산역 영등포구청 방면 플랫폼 내 (당산동6가 227-1)",37.53381048,126.90204204
GS25S당산역2호점,"서울 영등포구 양평로지하 40, 외선7번 2호선 당산역 합정방면 플랫폼 내 (당산동6가 227-1)",37.53381048,126.90204204
GS25S대림역점,"서울 영등포구 도림로지하 137, 7호 호선 대림역 (대림동 1050-17)",37.49281872,126.89685253
GS25S디지털미디어시티역,"서울 마포구 성암로지하 184, 지하 상가 (상암동 1140, 디지털미디어시티역사)",37.57684388,126.8991236
GS25S마곡나루역점,"서울 강서구 마곡중앙로지하 135, 공항철도 마곡나루역 지하 1층 (마곡동 373-14)",37.56579379,126.827646
GS25S마들역점,"서울 노원구 한글비석로530, (7호선마들역내)  (상계9동 647, 상계주공12단지아파트)",37.66626997,127.05935781
GS25S매봉역점,"서울 강남구 남부순환로지하 2744, 매봉역내 333-03호 (도곡동 179-2)",37.48697736,127.04667313
GS25S매헌역점,"서울 서초구 매헌로지하 116, 지하층 매장 2호 (양재동 233-2)",37.46999678,127.03831959
GS25S먹골역점,"서울 중랑구 동일로지하 901, 2001호 (묵동 189-5, 먹골역)",37.61080272,127.07769203
GS25S메트로금호점,"서울 성동구 동호로지하 104, 324-09호 (금호동4가)",37.54810442,127.01587158
GS25S면목역점,"서울 중랑구 겸재로171-5, 면목역 지하1층 GS25 S면목역점 (면목동 120-17)",37.58845356,127.08653938
GS25S반포역점,"서울 서초구 신반포로지하 241, 반포역 상가1054 (잠원동 103)",37.50828009,127.01180246
GS25S보라매역점,서울 영등포구 신풍로113(신길6동 508),37.5001491,126.9188208
GS25S사가정역점,"서울 중랑구 사가정로지하 393, 지하철 7호선 사가정역 (면목동 495)",37.58249603,127.08866148
GS25S상도역점,"서울 동작구 상도로지하 272, 상도역내 지하 1층 (상도1동 702-1)",37.50349659,126.94726246
GS25S상봉역점,"서울 중랑구 망우로297, 상봉역 7호선 지하2층 GS25 S상봉역점 (상봉동 100-9)",37.59676618,127.08601877
GS25S서울역1호점,"서울 용산구 청파로378, 1층 (동자동 43-205, 한국철도공사)",37.55177794,126.97115363
GS25S서울역2호점,"서울 용산구 청파로378, 지하3층 (동자동 43-205, 한국철도공사)",37.55177794,126.97115363
GS25S수락산역점,"서울 노원구 동일로지하 1662, 수락산역 (상계동 1132-9)",37.67732929,127.05530712
GS25S숭실대입구역점,"서울 동작구 상도로지하 378, 7호선 숭실대입구역 내 상가 1001 (상도동)",37.4958073,126.9539861
GS25S신대방삼거리역점,"서울 동작구 상도로지하 76, 7호선 신대방삼거리역 내 상가 1001 (대방동 406-10)",37.49941784,126.9275622
GS25S신풍역점,서울 영등포구 신풍로지하 27 (신길6동 3599),37.50030597,126.90942033
GS25S양재역1호점,서울 서초구 양재동12-1 신분당선양재역내 B1-27,37.48430403,127.03481191
GS25S양재역2호점,"서울 서초구 남부순환로지하 2585, B3-41호  (서초2동 1366-9, 신분당선양재역내)",37.48478782,127.03336966
GS25S어린이대공원역점,"서울 광진구 능동로지하 210, 어린이대공원 역 상가1001 (화양동 164-1, 세종대)",37.54714145,127.07393896
GS25S온수역점,서울 구로구 온수동73 7호선온수역내,37.49516672,126.81730664
GS25S용마산역점,"서울 중랑구 용마산로지하 227, 용마산역 상가1001 (면목동 1316-5)",37.57397791,127.08707849
GS25S이수역점,"서울 동작구 사당로지하 310, 7호선內(사당2동 144-4)",37.48552516,126.98065649
GS25S장승배기역점,"서울 동작구 상도로지하 188, 장승배기 역사 내 (상도동 26-20)",37.50430873,126.94134716
GS25S종합운동장역점,"서울 송파구 올림픽로지하 23, 2호선 종합운동장역 지하상가 4호 (잠실동)",37.51110199,127.07428261
GS25S중계역점,"서울 노원구 동일로지하 1308-1, 중계역 7호선 역사 내 (중계동 503-3)",37.64259225,127.06520874
GS25S중곡역점,"서울 광진구 능동로415-1, 7호 호선중곡역내  (중곡3동 167-1)",37.5662609,127.08422957
GS25S중화역점,서울 중랑구 동일로지하 797 (중화1동 50-3),37.60179053,127.0786187
GS25S천왕역점,"서울 구로구 오리로지하 1154 (오류동 174-5, 7호선 청왕역내)",37.48672149,126.83885598
GS25S청계산역점,"서울 서초구 청계산로지하 179, 청계산입구역 지하1층 GS25 S청계산역점 (신원동 270-25)",37.44843219,127.05480252
GS25S청담역점,"서울 강남구 학동로87길7, (7호선청담역)  (청담동 75-1, 현대아파트)",37.51919311,127.05152372
GS25S태릉입구역점,"서울 노원구 동일로지하 992-1, 717동 1002호 (공릉동 616-4, 태릉입구역)",37.61913524,127.07511968
GS25S하계역점,"서울 노원구 동일로지하 1196, 지하1층 GS25 (하계동 273-5)",37.6352211,127.0685415
GS25S학동역점,"서울 강남구 학동로지하 180 (논현동 279-67, 지하상가)",37.51419073,127.03135035
GS25S홍대역사점,"서울 마포구 양화로지하 160, 홍대입구역(2) 239-108호 (동교동 165)",37.55687792,126.9236607
GS25S홍대입구역점,"서울 마포구 양화로지하 188, B2F R01호 (동교동 190-1)",37.55767392,126.92796148
GS25T타운점,"서울 마포구 마포대로144 (공덕동 252-5, 마포티타운)",37.54694797,126.95367928
GS25YG신사옥점,"서울 마포구 희우정로1길7, 2층 (합정동 397-9)",37.54894881,126.90796507
GS25가든파이브점,"서울 송파구 충민로66(문정2동 634, 가든파이브라이프패션관B1-1028호)",37.47760821,127.12494095
GS25가락금호점,"서울 송파구 송파대로32길15 (가락본동 95-1, 가락금호아파트)",37.49623202,127.11630973
GS25가락명성점,"서울 송파구 송이로23길18, 1층 (가락2동 144-20)",37.49584709,127.125124
GS25가락몰점,"서울 송파구 양재대로932, 1층 1호 (가락동 600, 업무동)",37.49510046,127.1156106
GS25가락미륭점,"서울 송파구 동남로11길12, 1층 (가락동 135-24)",37.49319799,127.12756364
GS25가락본점,"서울 송파구 오금로36길69-14, 1층 (가락동 49-10)",37.49776577,127.12140347
GS25가락센타점,서울 송파구 오금로44가길9 (가락동 170),37.49734243,127.13485513
GS25가락스타점,"서울 송파구 송파대로30길16,  110호(가락본동 98, 두산위브센티움)",37.49456821,127.11914523
GS25가락우정점,"서울 송파구 중대로23길20,  104호(가락본동 8-1, 우정에쉐르)",37.50262801,127.12579134
GS25가락으뜸점,"서울 송파구 오금로36길46, 1층 (가락본동 41, 덕봉빌딩)",37.50007496,127.12294845
GS25가락제일점,서울 송파구 동남로13길50 (가락2동 123-17),37.49402384,127.12470422
GS25가락중대로점,서울 송파구 송이로24길15 (가락동 116-8),37.49280318,127.12292041
GS25가락진흥점,"서울 송파구 양재대로66길44, 1층 (가락본동 35-10, 진흥빌딩)",37.49965175,127.1254189
GS25가락타운점,"서울 송파구 양재대로62길47,  101호(가락본동 76-9)",37.49595918,127.12080263
GS25가리봉사랑점,"서울 구로구 구로동로7길57, 1층 (가리봉동 13-37)",37.48654718,126.88339847
GS25가리봉역점,"서울 금천구 벚꽃로286,  1층 107호(가산동 60-15, 리더스타워)",37.48035526,126.88416901
GS25가산V1점,"서울 금천구 가산디지털1로171, 114호 (가산동 371-41, 가산에스케이브이원센터)",37.48099694,126.88056398
GS25가산대륭점,서울 금천구 가산디지털1로25 (가산동 670),37.46791396,126.88630966
GS25가산두산점,서울 금천구 가산로3길113(독산1동 335-14),37.4718633,126.88947305
GS25가산디폴리스점,"서울 금천구 서부샛길606, 107호 (가산동 543-1, 대성디폴리스지식산업센터)",37.47968438,126.87707858
GS25가산미소점,"서울 금천구 서부샛길528, 1층 103호 (가산동 550-17, 미소지움)",37.47632054,126.87866652
GS25가산백상점,"서울 금천구 디지털로9길65,  102호(가산동 60-17, 드림타워9차)",37.48027648,126.88536867
GS25가산본점,서울 금천구 남부순환로112길15 (가산동 147-25),37.47790722,126.89501406
GS25가산세진점,"서울 금천구 벚꽃로278,  B138호(가산동 60-19, 세진테크노빌)",37.47941303,126.88457874
GS25가산스타점,"서울 금천구 디지털로9길99,  126호(가산동 60-11, 스타밸리)",37.481668,126.88482789
GS25가산에이스점,"서울 금천구 가산디지털2로173, 103호 (가산동 459-23)",37.48316289,126.87712828
GS25가산엘지점,서울 금천구 가산디지털1로51(가산동 327-23),37.47057036,126.88517366
GS25가산태양점,"서울 금천구 시흥대로153길89, 1층 (가산동 149-27)",37.47612066,126.89378541
GS25가산포스트6차점,"서울 금천구 벚꽃로298, 125호 (가산동 50-3, 대륭포스트타워6차)",37.48141621,126.8839271
GS25가산프리미어점,"서울 금천구 가산디지털1로88, 1층 , 103호 (가산동 345-50, IT프리미어타워)",37.47383265,126.88522696
GS25가산하이엔드점,"서울 금천구 가산디지털1로233, 107호 (가산동 481-2, 에이스하이엔드타워9차)",37.48583295,126.87838866
GS25가산하이힐점,서울 금천구 디지털로12길21(가산동 143-44),37.47769695,126.88988419
GS25가양2점,"서울 강서구 허준로47, 상가(가양1동 1461, 가양도시개발공사아파트)",37.57058952,126.84708662
GS25가양7단지점,서울 강서구 허준로209 (가양동 1486),37.56199974,126.86163913
GS25가양8단지점,서울 강서구 허준로176 (가양동 1482),37.56214596,126.85718861
GS25가양글로벌점,"서울 강서구 화곡로72길62, 107호 (가양동 448-11, 가양글로벌퍼스트)",37.56039531,126.85877731
GS25가양더리브점,"서울 강서구 양천로400-12, 1층 105호 (가양동 54-6, 더리브골드타워)",37.56533392,126.84589987
GS25가양데시앙점,"서울 강서구 양천로418, 1층 일부 (등촌동 10-14)",37.5646766,126.84778899
GS25가양메르디앙점,"서울 강서구 양천로516, 103호 (등촌동 720)",37.5598289,126.85704291
GS25가양우성점,"서울 강서구 양천로57길10-20,  상가 104호(가양2동 1480-5, 이스타빌)",37.56260975,126.85298223
GS25가양테크노점,"서울 강서구 화곡로68길15, , 22번지  103호 (등촌동 628-7, 아벨테크노지식산업센터)",37.55946912,126.85524878
GS25가양향교점,"서울 강서구 양천로49길54, 101호 (가양동 194-2, 양천향교지웰에스테이트)",37.57107788,126.84083037
GS25가재울현대점,"서울 서대문구 모래내로15길50, 1층 (남가좌동 197-5)",37.57387085,126.91964639
GS25가좌행복점,"서울 마포구 성암로28, 110호 (성산동 134-2, 가좌역행복주택)",37.56926065,126.91311346
GS25갈월하늘점,서울 용산구 한강대로328 (갈월동 10),37.54754212,126.97208324
GS25갈현대성점,"서울 은평구 갈현로33길14-1, 1층 (갈현동 445-15)",37.62094113,126.9147743
GS25갈현럭키점,"서울 은평구 서오릉로232, 2층 (갈현2동 327-13)",37.61557032,126.90883775
GS25갈현사랑점,"서울 은평구 연서로17길46-1, 1층 우측상가 (갈현동 497-13)",37.61414524,126.91258507
GS25갈현센터점,"서울 은평구 통일로85길5, 1층 (갈현동 394-10)",37.62204382,126.91907422
GS25갈현제일점,"서울 은평구 갈현로265, 1층(갈현1동 433-3)",37.62063841,126.91614936
GS25갈현중앙점,"서울 은평구 통일로89길5, 1층 (갈현1동 413-1)",37.62450309,126.91901595
GS25갈현코어점,"서울 은평구 갈현로121, 1층 (구산동 26-7)",37.60873104,126.9107385
GS25갈현파크점,"서울 은평구 갈현로25길14,  1층 101호 (갈현동 515-18)",37.61751512,126.91356678
GS25갈현포인트점,"서울 은평구 갈현로303 (갈현1동 422-35, 제일은행갈현시장)",37.62387032,126.91682744
GS25갈현하늘점,서울 은평구 갈현로45길26 (갈현동 12-22),37.6275516,126.91640017
GS25갈현행복점,서울 은평구 갈현로37길3(갈현1동 434-22),37.62208132,126.916287
GS25갈현행운점,"서울 은평구 연서로19길8, 1층 (갈현동 463-4)",37.61368849,126.91680525
GS25강남N타워점,"서울 강남구 테헤란로129, 강남N타워 GF층 7호 (역삼동 648-17)",37.49985525,127.03248557
GS25강남YBM점,서울 강남구 강남대로94길9 (역삼동 818-14),37.49947669,127.02807975
GS25강남개포점,"서울 강남구 개포로15길10, 1층 (개포동 1244-14)",37.47919916,127.04530212
GS25강남나누리점,"서울 강남구 언주로147길10, 1층 (논현동 63-19)",37.52001905,127.03336784
GS25강남동원점,"서울 강남구 테헤란로77길7(삼성2동 143-28, 동원빌딩)",37.50690826,127.05446159
GS25강남드림하이점,"서울 강남구 헌릉로569길21-30, 104호 (세곡동 615, 드림하이오피스텔)",37.46633315,127.10057538
GS25강남로데오점,"서울 강남구 압구정로54길16, 1층 (신사동 662-18)",37.52684299,127.03925339
GS25강남메트로점,"서울 강남구 테헤란로101,  A동 10호(역삼1동 821-1, 대우쇼핑타운)",37.49860238,127.02804585
GS25강남본점,"서울 강남구 테헤란로2길8, 1층 (역삼동 825-1)",37.4975896,127.0287036
GS25강남사랑점,서울 강남구 역삼로15길20 (역삼동 749-5),37.4961496,127.03550765
GS25강남상록회관점,서울 강남구 언주로98길25 (역삼동 699-27),37.50489517,127.04392313
GS25강남성심병원점,"서울 영등포구 신길로1, 1층 일부 (대림1동 948-1, 강남성심병원)",37.49333262,126.9085266
GS25강남세곡점,"서울 강남구 밤고개로21길25, 상가동 지상1층 103호, 104호 (자곡동 361)",37.47535526,127.10803093
GS25강남센타점,서울 서초구 강남대로465(서초4동 1303-22),37.50374162,127.02406592
GS25강남쉐르빌점,"서울 강남구 강남대로328, 111호 (역삼1동 832-3, 강남역쉐르빌오피스텔)",37.49235279,127.03069385
GS25강남시티힐점,"서울 강남구 강남대로98길17, 지하1층 (역삼동 620-9, 시티힐빌딩)",37.50098036,127.02794716
GS25강남신사점,서울 강남구 언주로173길13 (신사동 619-3),37.52802151,127.03240473
GS25강남쌍용점,"서울 강남구 테헤란로4길46,  109호(역삼1동 826-37, 쌍용플래티넘)",37.49525324,127.0305772
GS25강남아트점,"서울 강남구 강남대로102길40, 1층 (역삼동 618-3)",37.50342586,127.02839048
GS25강남에이스타워점,"서울 강남구 자곡로174-10, 1동 107호, 108호  (자곡동 649, 강남에이스타워G9)",37.47260453,127.10294222
GS25강남역삼점,"서울 강남구 봉은사로48길32, 지하1층 2호 (역삼동 690-29)",37.5073942,127.04208155
GS25강남영동점,서울 강남구 논현로149길50(논현1동 5-19),37.51735111,127.02449956
GS25강남유블레스점,"서울 강남구 자곡로180, 111-2호 (자곡동 651, 강남유탑유블레스오피스텔)",37.47366958,127.10317822
GS25강남쥬비스점,"서울 강남구 삼성로434, 1층 (대치동 942-4, 쥬비스타워)",37.50569924,127.05764377
GS25강남청담점,"서울 강남구 학동로441, 1층 (청담동 46-9)",37.51889408,127.04907271
GS25강남타운점,"서울 강남구 테헤란로115, 1층(역삼1동 649-10, 서림빌딩)",37.49906792,127.02987194
GS25강남태강점,"서울 강남구 테헤란로10길14, 1층(역삼1동 823-8, 태강빌딩)",37.49819591,127.03231472
GS25강남태양점,"서울 강남구 봉은사로4길29, 1층 (역삼1동 812)",37.50296272,127.02685832
GS25강남프리미엄점,서울 서초구 서초대로77길13 (서초동 1317-7),37.49882953,127.02608638
GS25강남헤븐리치점,"서울 강남구 봉은사로170, 상가 107호 (역삼동 605-17)",37.50656191,127.03282882
GS25강동강변점,"서울 강동구 구천면로155, 1층 (천호동 339-45)",37.54212191,127.12221851
GS25강동개나리점,서울 강동구 구천면로323 (암사동 488-30),37.5484003,127.13538574
GS25강동기쁨점,"서울 강동구 풍성로106, 102-1호 (성내동 120-60)",37.53215018,127.1238289
GS25강동둔촌점,서울 강동구 풍성로65길71 (둔촌동 461),37.5308184,127.1412459
GS25강동래미안점,"서울 강동구 천호대로163길21, 1층 (천호동 450-40)",37.53766328,127.13096096
GS25강동리버점,서울 강동구 올림픽로89길11 (천호동 322),37.54736409,127.12559735
GS25강동리버힐점,서울 강동구 올림픽로680 (천호동 357-11),37.54203378,127.12491275
GS25강동명일역점,서울 강동구 양재대로1637 (명일동 312-58),37.55177758,127.14381221
GS25강동베르네점,"서울 강동구 성내로6길20, 108호 (성내1동 556-2, 청일 베르네)",37.52902137,127.12232679
GS25강동베스트점,서울 강동구 양재대로103길13 (성내동 380-14),37.53282452,127.13709306
GS25강동삼성점,"서울 강동구 상일로5길8, 1층 (상일동 269-7)",37.54913523,127.17256524
GS25강동상생점,서울 강동구 동남로65길11 (명일동 176),37.54758113,127.15541472
GS25강동성내점,"서울 강동구 양재대로97길7, 1층 (성내동 397)",37.53099255,127.13670685
GS25강동성심점,"서울 강동구 성안로156, 1층 3호 (길동 416-6, 우주빌딩)",37.53696612,127.13541594
GS25강동성일점,"서울 강동구 성내로13길14, 1층 102호 (성내동 543)",37.52864539,127.12752431
GS25강동세무서점,"서울 강동구 천호대로1139, 1층 (길동 459-3, 강동그린타워)",37.53462573,127.13820379
GS25강동아이파크점,"서울 강동구 고덕로80길123, 고덕센트럴아이파크 1상가 108호 (상일동 131)",37.55159028,127.16547599
GS25강동암사점,"서울 강동구 고덕로20마길29, 1층 (암사1동 469-30)",37.55220513,127.13202575
GS25강동원일점,서울 강동구 올림픽로92길6 (천호동 315-6),37.5476461,127.12717841
GS25강동으뜸점,서울 강동구 양재대로1335 (성내동 429-3),37.52561788,127.13487943
GS25강동제일점,"서울 강동구 올림픽로622 (성내2동 78-10, 케이디빌딩)",37.53691198,127.1231848
GS25강동천일점,서울 강동구 올림픽로88길36 (천호동 313-4),37.54613131,127.12825984
GS25강동트레벨점,"서울 강동구 천호대로1057, 105,6호(천호3동 451-20, 오피스텔트레벨)",37.53724675,127.12946086
GS25강동파크점,"서울 강동구 천호대로1078,  104호(성내2동 164-1, CJ나인파크)",37.53581868,127.1313105
GS25강동펠리스점,"서울 강동구 고덕로140, 상가동1층119-2,120-1  (암사동 413-3, 현대대림아파트)",37.55445824,127.14071439
GS25강북구청점,"서울 강북구 한천로139나길1, 1층(수유3동 192-3)",37.63903383,127.02521085
GS25강북동수점,"서울 강북구 한천로148길13, 1층 (수유동 181-49)",37.64283721,127.02424333
GS25강북미아점,"서울 강북구 도봉로20가길40, 1층 코너 (미아동 135-8, 준타워)",37.62034585,127.02952159
GS25강북믿음점,서울 강북구 오패산로52길102 (미아동 258-669),37.62723056,127.03181113
GS25강북벽산점,"서울 강북구 삼각산로145, 1층 (수유2동 220-19)",37.6413544,127.02036487
GS25강북수유점,서울 강북구 삼양로497 (수유동 282-1),37.64748526,127.0143351
GS25강북우이점,"서울 강북구 삼양로173길39, 1층(우이동 165-4)",37.66243567,127.0103065
GS25강북최고점,"서울 강북구 덕릉로40길18, 1층 (번동 526-13)",37.63429205,127.03039392
GS25강북한천점,"서울 강북구 한천로132길84, 외 1필지(466-23) (번동 466-22)",37.64193147,127.03132576
GS25강서IT밸리점,"서울 강서구 화곡로68길82,  106호(등촌1동 638-3, 강서IT밸리)",37.55752574,126.8583344
GS25강서LG사이언스2점,"서울 강서구 마곡중앙10로70, E14동 3층 (마곡동 789)",37.56353744,126.83545751
GS25강서LG사이언스점,"서울 강서구 마곡중앙10로70, B1F (마곡동 789)",37.56353744,126.83545751
GS25강서공항점,"서울 강서구 송정로37, 1층(공항동 60-31)",37.55816443,126.81076567
GS25강서까치산점,"서울 강서구 강서로16길22, 1층 일부 (화곡동 341-31)",37.53284056,126.84753222
GS25강서드림점,서울 강서구 강서로155(화곡1동 1075-39),37.54054109,126.84074886
GS25강서등마루점,"서울 강서구 화곡로68길148, GS25 강서등마루점 (등촌동 636-60)",37.55597965,126.86151568
GS25강서등촌점,서울 강서구 강서로392-11 (등촌동 678-13),37.56076821,126.83972244
GS25강서라마다점,"서울 강서구 마곡중앙로161-11, 130호 (마곡동 760-1, 힐스테이트에코마곡나루역라마다앙코르서울)",37.56815334,126.82662421
GS25강서로우장산점,"서울 강서구 강서로46길47, 1층 일부 (내발산동 706-5, 동산빌딩)",37.55090441,126.83906055
GS25강서메디칼점,"서울 강서구 양천로556, 101호 (등촌1동 630-12, 강서메디칼센터)",37.5577737,126.86068479
GS25강서메르디앙점,서울 강서구 공항대로38길106 (내발산동 659-4),37.5569032,126.84343809
GS25강서메트로칸점,"서울 강서구 공항대로45가길11, 1층 101호 (등촌1동 656-52, 강서메트로칸)",37.55601396,126.85388691
GS25강서방화점,서울 강서구 양천로14길16(방화2동 559-5),37.5724561,126.81000639
GS25강서부영점,"서울 강서구 강서로56나길110, 1층 상가동  (등촌동 691-3, 부영아파트)",37.56359106,126.84366295
GS25강서사랑점,"서울 강서구 화곡로58길8, 1층(화곡6동 1117)",37.55287024,126.85119625
GS25강서센트레점,서울 강서구 공항대로2길25(공항동 70-223),37.56032472,126.80876192
GS25강서송정역점,"서울 강서구 공항대로34, 1층 (공항동 42-22, 청보빌딩)",37.56099537,126.81093573
GS25강서송정점,"서울 강서구 남부순환로11길28, 1층 (공항동 1340, 엘지(GS)25)",37.55467619,126.81512181
GS25강서안강점,"서울 강서구 마곡중앙로165, 102호 (마곡동 757-5, 안강프라이빗타워)",37.56856931,126.82768174
GS25강서우림점,"서울 강서구 양천로583,  상가 113호(염창동 240-21, 우림블루나인)",37.55734913,126.86431304
GS25강서우장점,"서울 강서구 강서로45다길21, 1층 (화곡동 1012)",37.54690914,126.83502595
GS25강서으뜸점,"서울 강서구 강서로7길45, 1층(화곡1동 901-24)",37.52928616,126.84524495
GS25강서자이타워점,"서울 강서구 양천로401, A동 103호 (가양동 1498, 강서한강자이타워)",37.56540986,126.84813991
GS25강서타운점,"서울 강서구 화곡로346,  109호(화곡6동 1111-2, 귀뚜라미홈시스텔)",37.55449055,126.85196361
GS25강서타워점,"서울 영등포구 선유로75 (문래동6가 10, GS강서타워지하1층)",37.52078568,126.88900852
GS25강서트레벨점,"서울 강서구 양천로57길9-19, 101호 (가양동 1479-8, 동양트레벨스카이오피스텔)",37.5637065,126.85087139
GS25강서하늘점,"서울 강서구 양천로10길38, 신마곡벽산블루밍APT 105동 상가 107호 (방화동 537-5)",37.57096447,126.80773214
GS25강서한빛점,"서울 강서구 양천로30길32, 1층 남쪽에서 첫번째 점포 (마곡동 326-19)",37.57184335,126.82258159
GS25강서현대점,서울 강서구 방화대로44길32 (방화동 272-41),37.57192117,126.81774662
GS25강서화곡로점,서울 강서구 화곡로18길31 (화곡동 1086-3),37.53893646,126.83608918
GS25강서화곡점,서울 강서구 까치산로193(화곡6동 1114),37.55443014,126.85409225
GS25강서희망점,"서울 강서구 강서로5나길90, 1층(화곡1동 913-11)",37.52852705,126.84317493
GS25강서힐스테이트점,"서울 강서구 강서로242, 상가동 1층 103호 (화곡동 1165-1, 강서힐스테이트)",37.54737665,126.83675011
GS25강일14단지점,"서울 강동구 고덕로98길160, 상가동 103호,104호 (상일동 28, 강동리엔파크14단지)",37.55157027,127.18063032
GS25강일4단지점,"서울 강동구 아리수로97길19 (강일동 673, 강일리버파크4단지상가동101,102호)",37.56727007,127.17594176
GS25강일6단지점,"서울 강동구 아리수로93가길77, 상가동 104,105호 (강일동 215, 강동리버스트6단지)",37.57048745,127.16960088
GS25강일9단지점,"서울 강동구 고덕로97길29, 상가 101,102호 (강일동 699, 강일리버파크)",37.55978449,127.17884257
GS25강일MK점,"서울 강동구 아리수로93나길50, 108호 (강일동 76-7, 강일MK프라자)",37.57207294,127.17468886
GS25강일뉴타운점,"서울 강동구 아리수로93길33, 105호 (강일동 675, 베스트프라자)",37.56589257,127.17352321
GS25강일리버점,"서울 강동구 아리수로94길72, 102호 강일리버파크 8단지상가  (강일동, 강일리버파크8단지아파트)",37.56153837,127.17709151
GS25강일성산점,서울 강동구 아리수로93나길26 (강일동 76-11),37.57192039,127.17349056
GS25강일타운점,"서울 강동구 아리수로97길68,  상가 101호(강일동 668, 강일리버파크2단지)",37.56971608,127.17653742
GS25개나리SK점,"서울 강남구 역삼로315, 107호 (역삼동 716-4)",37.50054055,127.05031208
GS25개봉가늠점,서울 구로구 고척로27길51 (개봉동 118-26),37.5042122,126.84636643
GS25개봉당곡점,서울 구로구 개봉로11길7 (개봉3동 348-1),37.4879854,126.85572995
GS25개봉로점,"서울 구로구 개봉로17나길88, 1층 (개봉동 308-18)",37.49416294,126.85071649
GS25개봉빌리지점,"서울 구로구 개봉로1나길36, 1층 (개봉동 368-17)",37.48475548,126.85251146
GS25개봉성심점,"서울 구로구 개봉로17나길33, 1층 일부호 (개봉동 323-33)",37.49302648,126.85338006
GS25개봉역점,"서울 구로구 개봉로20길78, 101호 (개봉2동 407-18, 성동유치원)",37.49325802,126.85868016
GS25개봉으뜸점,"서울 구로구 경인로40길41, 107호 (개봉1동 181-5, 대덕빌딩)",37.49512683,126.85905883
GS25개봉중앙점,서울 구로구 경인로330(개봉3동 353-1),37.49716805,126.85676598
GS25개봉타운점,"서울 구로구 경인로33길25, 101호 (개봉동 139-61)",37.49904609,126.85159163
GS25개봉푸르지오점,"서울 구로구 고척로30길26, 1층 (개봉동 130-22)",37.50115538,126.84890157
GS25개봉한마을점,"서울 구로구 경인로382, 제2상감동 106,107호 (개봉동 476)",37.49527623,126.86240394
GS25개봉현대점,서울 구로구 개봉로16길9(개봉2동 261-11),37.4901302,126.85669233
GS25개포경남점,서울 강남구 언주로110(개포1동 649),37.4844794,127.05426943
GS25개포늘푸른점,"서울 강남구 영동대로22, 상가 826동 S1B1-0102호 (일원동 611-1)",37.49069925,127.07507726
GS25개포럭키점,서울 강남구 개포로20길12(개포4동 1232),37.47791728,127.04724049
GS25개포미래점,"서울 강남구 개포로244, 1층 (개포동 1212)",37.47881671,127.04927553
GS25개포빌리지점,"서울 강남구 논현로16길6, 1층 일부 (개포동 1227-11)",37.47604181,127.0470834
GS25개포사랑점,"서울 강남구 논현로8길21, 1층 (개포동 1187-6)",37.47443791,127.05043896
GS25개포소망점,"서울 강남구 개포로508, 109호,110호 (개포2동 186-15, 소망빌딩)",37.48920145,127.06793778
GS25개포타운점,서울 강남구 논현로12길13 (개포동 1196-6),37.47474388,127.04927059
GS25개포포레스트점,"서울 강남구 개포로264, 상가 A동 108호 (개포동 656-4, 개포래미안포레스트)",37.48013963,127.05243592
GS25개화산역점,"서울 강서구 양천로25 (방화1동 495-18, 서림미술학원)",37.57280007,126.80659348
GS25개화행복점,"서울 강서구 개화동로23길35, 1층 여주슈퍼 (방화동 646-101)",37.56664776,126.8076538
GS25거여삼호점,"서울 송파구 거마로9길23,  104호(거여1동 136-22, 힐하우스빌딩)",37.49701739,127.14341996
GS25거여센타점,"서울 송파구 거마로3길18, 1층 (거여1동 23)",37.49484215,127.14291329
GS25거여우리점,"서울 송파구 오금로64길3,  1층 101호 (거여2동 546)",37.49246096,127.14756569
GS25거여초교점,"서울 송파구 동남로30길8, 1층 (오금동 119)",37.50432529,127.13973979
GS25건국점,서울 광진구 화양동 195-17,37.54564564,127.07623208
GS25건대기숙사점,"서울 광진구 능동로120 (화양동 1, 건국대학교기숙사1층상가내109호)",37.54263423,127.07368918
GS25건대동문회관점,"서울 광진구 아차산로36길5, 1층 3호 (자양동 227-336, 건국대학교동문회관)",37.53827094,127.07455787
GS25건대몰점,"서울 광진구 아차산로30길26, 104호 (자양동 9-4, 몰오브케이)",37.53977861,127.06691251
GS25건대수정점,"서울 광진구 능동로13길15, 1층(화양동 11-1)",37.54279238,127.07088084
GS25건대제일점,서울 광진구 아차산로25길7(화양동 49-1),37.54183003,127.06653615
GS25건대호수점,"서울 광진구 아차산로39길16, 1층(자양1동 225-90)",37.53874797,127.07679243
GS25경기대서울점,"서울 서대문구 경기대로9길50, 지하1층(충정로3가 1-35)",37.56416312,126.96141859
GS25경리단길점,"서울 용산구 회나무로17, 1층 101호 (이태원동 277-6)",37.53914406,126.98874172
GS25경의선책거리점,"서울 마포구 신촌로4길18, 1층 코너면 (동교동 176-1)",37.55717135,126.92818372
GS25경희궁자이점,"서울 종로구 송월길155, 상가동 1층 4123호 (교북동 12-1, 경희궁자이)",37.57170849,126.96183455
GS25경희대학사점,"서울 동대문구 경희대로26, 경희대학교 서울캠퍼스 공공기숙사 지상1층 (회기동 1-5)",37.59522949,127.05451152
GS25경희원룸점,"서울 동대문구 이문로3길66, 외 1필지  1층 (회기동 103-220)",37.59088932,127.05149781
GS25경희의대점,"서울 동대문구 회기로23가길21, 1층(회기동 3-4)",37.59224399,127.05413032
GS25경희점,서울 동대문구 경희대로3길2(회기동 36-26),37.59277003,127.05231188
GS25계동중앙점,"서울 종로구 계동길61, 1층 (계동 86)",37.5800325,126.98653598
GS25고대개운점,서울 성북구 개운사길56(안암동5가 15-19),37.58884394,127.02933065
GS25고대성북천점,"서울 성북구 보문로22길28, 1층(안암동3가 86)",37.58379187,127.02202547
GS25고대으뜸점,서울 동대문구 안암로22길2 (제기동 137-66),37.58816877,127.03489896
GS25고대종암점,"서울 성북구 북악산로27길14 (종암동 31-46, 돌채빌딩)",37.59213824,127.03439476
GS25고대중앙광장점,"서울 성북구 안암로145, 고려대학교 중앙광장 109C호 (안암동5가 1-2)",37.58870808,127.03253682
GS25고대타운점,서울 성북구 고려대로24가길7 (안암동5가 103-61),37.5853519,127.02981757
GS25고덕그라시움점,"서울 강동구 고덕로385, 상가 127, 128호 (고덕동 212, 고덕그라시움아파트)",37.55739707,127.16476609
GS25고덕리엔점,서울 강동구 상일로152 (강일동 707),37.5610502,127.17170908
GS25고덕시티점,서울 강동구 명일동47-2번지 갑을명가오피스텔,37.55404468,127.15457217
GS25고덕아르테온점,"서울 강동구 고덕로380, 근린생활시설 2동 101-2호 (상일동 121)",37.55534279,127.16861452
GS25고덕점,서울 강동구 동남로81길44(고덕1동 503),37.56004513,127.15449306
GS25고덕파크점,서울 강동구 동남로85길20 (고덕동 528-5),37.56143141,127.15556401
GS25고려대역점,"서울 동대문구 종암로2, 1층(제기동 1149-10)",37.59049808,127.03656737
GS25고척공원점,"서울 구로구 고척로185 (고척2동 164-40, 우성빌딩1층상가전부)",37.50452074,126.85399599
GS25고척사랑점,"서울 구로구 경인로47다길8, 1층 101호 (고척1동 46-21)",37.50342084,126.86419174
GS25고척세곡점,서울 구로구 고척로33길60 (고척2동 241-129),37.50523755,126.84802456
GS25고척센츄리점,"서울 구로구 중앙로12길12,  상가 101호(고척1동 320, 센츄리)",37.50441201,126.86232187
GS25고척으뜸점,"서울 구로구 고척로228-6, 1층 (고척동 195-13, 종만빌딩)",37.50583275,126.85828516
GS25고척점,서울 구로구 경인로47길10(고척1동 62-98),37.50016063,126.86717028
GS25고척중앙점,서울 구로구 고척로33길106 (고척동 250-109),37.50716578,126.8471014
GS25고척타운점,서울 구로구 고척로39길29 (고척동 261-41),37.50457095,126.85081709
GS25고척학산점,서울 구로구 경인로35길109(고척2동 271-44),37.50129452,126.85208874
GS25골든타워점,서울 구로구 경인로224 (오류동 59-20),37.49664643,126.84574775
GS25곰달래로점,"서울 강서구 곰달래로31길16, 1층 (화곡동 872-24)",37.53160876,126.85149982
GS25공덕대우점,"서울 마포구 백범로199,  102호 -A (신공덕동 167, 대우매트로디오빌)",37.54341141,126.95317422
GS25공덕블레스점,"서울 마포구 만리재로94, 1층 (공덕동 108-65)",37.54864166,126.95976671
GS25공덕블루마리점,"서울 마포구 만리재로63, 1층 101호 (신공덕동 3-3, 블루마리오피스텔)",37.5468799,126.95718838
GS25공덕삼성점,"서울 마포구 마포대로115-8, 108, 109호 (공덕동 371, 공덕삼성아파트)",37.54670685,126.95087614
GS25공덕제니스점,"서울 마포구 마포대로7길23, 지층 (공덕동 373-9)",37.54724694,126.95183049
GS25공덕태영점,"서울 마포구 독막로320, 109호,110호 (도화동 560)",37.54294951,126.94783953
GS25공덕파크자이점,서울 마포구 공덕동446-34번지 공덕파크자이 상가102동 16호,37.54467351,126.94817742
GS25공릉공원점,"서울 노원구 동일로186길70, 1층 (공릉동 506-1)",37.62529278,127.07670869
GS25공릉대성점,"서울 노원구 동일로190길41, 1층 (공릉동 393-4)",37.6260573,127.0753851
GS25공릉라이프점,"서울 노원구 섬밭로125, 상가동 104호,108호 (공릉동 715)",37.62697741,127.06864438
GS25공릉문화점,"서울 노원구 동일로179길23, 1층 (공릉동 575-1)",37.62176599,127.07278749
GS25공릉삼익점,"서울 노원구 동일로1116, 1층 상가동 (공릉동 714)",37.62993237,127.07201762
GS25공릉센타점,"서울 노원구 공릉로46길6, 107호 (공릉동 421-19, 현대프라자)",37.6268641,127.07946481
GS25공릉에이스점,서울 노원구 동일로174길9-60 (공릉동 621-1),37.6199425,127.07580067
GS25공릉역점,서울 노원구 동일로192길15(공릉1동 386-3),37.62621605,127.07379712
GS25공릉우방점,"서울 노원구 노원로58 (공릉2동 108, 우방아파트상가제1층 102호)",37.62664535,127.08726172
GS25공릉원룸점,서울 노원구 공릉로126 (공릉동 747),37.62091931,127.07973069
GS25공릉으뜸점,"서울 노원구 동일로178길29-4, 1층 102호 (공릉동 585-20)",37.62162271,127.07634627
GS25공릉제일점,서울 노원구 동일로193길21 (공릉1동 383-1),37.62574714,127.07145791
GS25공릉중앙점,서울 노원구 동일로173가길28(공릉1동 598-17),37.61965418,127.07350471
GS25공릉청솔점,"서울 노원구 노원로1가길10, 상가 101,102호 (공릉2동 91, 청솔아파트)",37.6232475,127.08597785
GS25공릉타운점,"서울 노원구 공릉로43길19, 1층 (공릉동 408-89)",37.62593673,127.07840002
GS25공릉태강점,서울 노원구 공릉로34길38 (공릉동 81),37.62360454,127.0832207
GS25공릉퍼스트점,서울 노원구 섬밭로6 (공릉동 684-11),37.61736114,127.07294414
GS25공릉화랑점,"서울 노원구 화랑로51길17, 상가 101호 (공릉동 111, 화랑타운아파트)",37.62368086,127.08841947
GS25공릉효성점,"서울 노원구 화랑로556, 상가동 1층 105호 (공릉동 742, 효성아파트)",37.62103363,127.0886557
GS25공항로점,서울 양천구 공항대로558(목3동 603-5),37.54917027,126.86739085
GS25공항로캐슬점,"서울 강서구 공항대로382,  상가 107호(화곡동 1145, 우장산롯데캐슬)",37.55563248,126.84801881
GS25공항소담점,"서울 강서구 방화대로6라길26, 1층 (공항동 1349)",37.55615163,126.8184938
GS25공항제일점,"서울 강서구 송정로4길46, 1층 (공항동 654)",37.55834513,126.8135018
GS25공항하늘점,서울 강서구 방화대로21나길34 (공항동 18-9),37.56382094,126.81236229
GS25공항행복점,서울 강서구 방화대로7길28(공항동 669-5),37.55628401,126.814621
GS25공항화물청사점,"서울 강서구 하늘길233, 1층 (공항동 1373-5, 골프포트)",37.55674455,126.80845675
GS25관악KT점,서울 관악구 조원중앙로7 (신림동 1668-12),37.48049803,126.90423594
GS25관악고시촌점,"서울 관악구 호암로24길74, 1층 (신림동 1538, 유림재고시연구원)",37.46917565,126.93720785
GS25관악까치점,서울 관악구 행운길21 (봉천동 1675-1),37.48007556,126.95915769
GS25관악녹두점,"서울 관악구 호암로26길9, 1층 (신림동 1514-7, 대관)",37.47087919,126.93426701
GS25관악당곡점,서울 관악구 남부순환로191길8(은천동 961-13),37.48557692,126.93444271
GS25관악대성점,서울 관악구 관악로12길17(낙성대동 1598-35),37.47819502,126.95333846
GS25관악대원점,"서울 관악구 인헌16길47, 지하1층 (봉천동 180-422, 새진아파트)",37.46925685,126.96564975
GS25관악대학점,서울 관악구 신림로7나길3(대학동 235-15),37.46980701,126.9412913
GS25관악두산점,서울 관악구 봉천로33나길20 (봉천동 904-4),37.48553729,126.94307075
GS25관악미림점,서울 관악구 호암로18가길1 (신림동 306-6),37.46542049,126.93245669
GS25관악미성점,"서울 관악구 남부순환로144길24, 101호 (신림동 1488-35)",37.48021526,126.91264078
GS25관악배수지점,"서울 관악구 난곡로26길89, 지하1층 (신림동 646-273)",37.46928531,126.92443181
GS25관악법원단지점,"서울 관악구 법원단지21길2, 1층 B02호 (난곡동 610-140)",37.47507332,126.92281129
GS25관악보라매점,"서울 관악구 보라매로3길17, 101~102호(보라매동 702-108)",37.49121482,126.92618682
GS25관악봉림점,"서울 관악구 장군봉7길2,  B동 01호 (봉천동 1533-1)",37.48056692,126.93943221
GS25관악봉천점,서울 관악구 관악로17길25(청룡동 876-1),37.4807176,126.95025049
GS25관악블루점,"서울 관악구 관악로208-40, 1층 (봉천동 62-19)",37.48310084,126.95481908
GS25관악서원점,서울 관악구 남부순환로1626-1(서원동 11-18),37.48419723,126.93133023
GS25관악성진점,"서울 관악구 조원중앙로1길54, 1층 (신림동 1664-14)",37.48023021,126.90159413
GS25관악세봉점,"서울 관악구 관악로125, 상가 101호 (청룡동 1591-2, 삼우아파트)",37.47614726,126.95205553
GS25관악스마일점,서울 관악구 난곡로34나길17 (신림동 1678-20),37.47278148,126.92147623
GS25관악스카이점,"서울 관악구 서원6길1, 지층 (신림동 409-33)",37.47663827,126.9324215
GS25관악스타힐스점,"서울 관악구 청림3길10, 1층 1-5호 (봉천동 10-4, 서희스타힐스아파트)",37.4887382,126.95955766
GS25관악승리점,"서울 관악구 봉천로281, 1층 (봉천동 968-36)",37.48773072,126.93247851
GS25관악신림로점,"서울 관악구 신림로66길25, 1층 (신림동 1420-30)",37.48564559,126.93107215
GS25관악쑥고개점,"서울 관악구 쑥고개로129, 1층 (청룡동 1568-8)",37.47902205,126.95108827
GS25관악아미움점,"서울 관악구 장군봉1길16, 상가동 101호 (봉천동 1522-30, 청룡동금강아미움아파트)",37.48182319,126.94086172
GS25관악영락점,"서울 관악구 청룡8길28, 1층 (봉천동 919-15)",37.48009844,126.94447022
GS25관악원당점,서울 관악구 행운1길81 (봉천동 1668-18),37.48220148,126.95603013
GS25관악원앙점,"서울 관악구 남부순환로218길46,  지층 B1호(청룡동 878-1)",37.47936398,126.95002068
GS25관악은천로점,서울 관악구 은천로24(은천동 956-2),37.48607635,126.93787306
GS25관악은혜점,서울 관악구 신림로36길22 (신림동 94-95),37.4758471,126.93861706
GS25관악이편한점,"서울 관악구 참숯5길12, 1층 (신림동 95-53, 영어린이집)",37.47705217,126.94036376
GS25관악인헌점,"서울 관악구 낙성대역길31, 1층(낙성대동 207-21)",37.47608675,126.96153072
GS25관악장군점,"서울 관악구 장군봉2길45, 1층(청룡동 1520-1)",37.48319255,126.93782343
GS25관악장원(빨래방)점,"서울 관악구 대학길84, 1층,지층 (대학동 253-3)",37.46699742,126.93746478
GS25관악장원점,"서울 관악구 대학길84, 1층,지층 (대학동 253-3)",37.46699742,126.93746478
GS25관악점,서울 관악구 남부순환로1599 (신림동 1433-60),37.48428547,126.92814037
GS25관악탑점,"서울 관악구 남현길79, 1층 (남현동 1078-2)",37.47325568,126.9757809
GS25관악푸르지오점,"서울 관악구 관악로30길17, 1층(청림동 16-6)",37.48653432,126.95895501
GS25관악플러스점,서울 관악구 봉천로442-1 (봉천동 884-5),37.48221131,126.94900845
GS25관악한빛점,"서울 관악구 봉천로455, 외1필지(중앙동 873-43)",37.48262159,126.95056306
GS25관악한일점,"서울 관악구 승방2길2(남현동 602-11, 한일빌딩)",37.47397046,126.9813335
GS25관악해바라기점,"서울 관악구 보라매로6길33, 2,3호 (봉천동 1500, 지하상가)",37.49315762,126.92878256
GS25관악현대점,"서울 관악구 청림5길87, 2층 (청림동 1-783)",37.49173863,126.95954997
GS25관악휴먼시아점,"서울 관악구 난곡로53,  304호(난향동 1735-3, 휴먼시아)",37.46021072,126.91938481
GS25광나루점,서울 광진구 아차산로78길182(광장동 323-2),37.54762822,127.10790604
GS25광나루현대점,서울 광진구 아차산로76길32 (광장동 322-3),37.54703951,127.10750565
GS25광운로드점,서울 노원구 석계로65 (월계동 429-9),37.62050566,127.06266473
GS25광운문화관점,"서울 노원구 광운로21, 문화관(월계1동 466, 광운대학교)",37.61972516,127.05969534
GS25광운사랑점,서울 노원구 광운로17-11(월계1동 496-45),37.61949842,127.05725141
GS25광운삼거리점,"서울 노원구 광운로44, 1층 3호 (월계동 406, 준빌딩)",37.62135452,127.05950489
GS25광운월계점,서울 노원구 광운로2나길45 (월계동 442-2),37.61778299,127.06020687
GS25광운타운점,"서울 노원구 광운로79, 1층 (월계동 375-2)",37.62436685,127.05986344
GS25광운행운점,서울 노원구 광운로5 (월계동 469-28),37.61846169,127.05718521
GS25광장삼성점,"서울 광진구 아차산로546, 상가 1층 103호 (광장동 453-1, 삼성)",37.5424208,127.1020498
GS25광장학산점,"서울 광진구 아차산로78길72, 1층 101-1호 (광장동 110, 학산코스모스텔)",37.5513947,127.11030571
GS25광장현대점,"서울 광진구 아차산로66길31, 1층 (광장동 569)",37.54164497,127.09838143
GS25광진구의,서울 광진구 자양로18길65 (구의동 242-82),37.53836861,127.08710545
GS25광진구의역점,"서울 광진구 아차산로417, 102호 (구의동 243-13)",37.53808509,127.08889674
GS25광진군자역점,"서울 광진구 천호대로562, 1층 (능동 220-4, 쥬얼테크)",37.55646313,127.08032023
GS25광진능동,"서울 광진구 능동로36길168, 1층 (능동 254-6)",37.55297897,127.08766292
GS25광진대성점,"서울 광진구 동일로66길9, 1층 (중곡1동 252-23)",37.561753,127.07579554
GS25광진더클래식점,"서울 광진구 능동로90, 더클래식500 지하1층 CB102호 (자양동 227-342)",37.53869522,127.07121456
GS25광진동양점,"서울 광진구 긴고랑로7길105, 1층 (중곡동 189-1, 동양슈퍼)",37.56786091,127.08141398
GS25광진마루점,서울 광진구 중곡동74-120번지 지하1층,37.55971036,127.09475687
GS25광진미소점,"서울 광진구 광나루로20길38, 1층 (화양동 111-40)",37.54540276,127.0739831
GS25광진시티점,"서울 광진구 자양로5길13-1, 1층 (자양2동 678-2, 연수빌딩)",37.53142273,127.08493856
GS25광진아차산역,"서울 광진구 천호대로666, 그랜드파크오피스텔 B105-1호 (구의동 76-1)",37.55136972,127.08930092
GS25광진아차산점,"서울 광진구 자양로50길18, 1층 (구의동 33-59)",37.55193204,127.09328914
GS25광진용마점,서울 광진구 천호대로125길72 (중곡동 123-20),37.55757127,127.08726738
GS25광진우체국점,"서울 광진구 강변역로2, 1층 (구의동 587)",37.53722153,127.09025376
GS25광진자양로점,서울 광진구 자양로9길70 (자양동 633-14),37.53226733,127.0811492
GS25광진제일점,서울 광진구 능동로354 (중곡2동 41-38),37.56098938,127.08186055
GS25광진진넥스점,"서울 광진구 광나루로604, 104호 (구의동 201-8, 진넥스베르디엠)",37.54156425,127.0948971
GS25광진캠퍼스점,"서울 광진구 동일로178, 105호 (화양동 21-20, 캠퍼스시티)",37.5478053,127.06784229
GS25광진타운빌점,"서울 광진구 답십리로86길16, 1층 (중곡동 549-6)",37.57038862,127.08434884
GS25광진타운점,서울 광진구 동일로62길34 (중곡동 636-9),37.55928481,127.07588262
GS25광진타워점,서울 광진구 아차산로355 (자양동 779),37.53756455,127.08218179
GS25광진파크점,서울 광진구 동일로30길28(화양동 19-38),37.5474708,127.06884233
GS25광진팰리스점,"서울 광진구 뚝섬로34길67, B동 103호 (자양3동 854, 광진트라팰리스)",37.53208046,127.06765334
GS25광진현대점,"서울 광진구 자양번영로3길54, 1층 (자양동 469)",37.53248496,127.07210623
GS25광흥창역점,"서울 마포구 서강로55, 103호 (창전동 444, 서강쌍용예가)",37.54845127,126.92939502
GS25광희문점,"서울 중구 청구로116, 1층(신당동 304-499)",37.5621612,127.01053658
GS25광희빌딩점,"서울 중구 마른내로156, 1층 (광희동1가 237, 광희빌딩 별관)",37.56451396,127.00529858
GS25교직원공제회점,"서울 영등포구 여의나루로50, 지하1층 5호 (여의도동 35-3, 한국교직원공제회관)",37.52181815,126.9256126
GS25구로W타워점,"서울 구로구 경인로53길90,  103호(구로2동 615-3, STX-W타워)",37.50478708,126.87514189
GS25구로가리봉점,서울 구로구 우마길1 (가리봉동 122-21),37.48255868,126.8875509
GS25구로개봉점,서울 구로구 고척로19길16(개봉1동 62-19),37.50196746,126.84532655
GS25구로개웅점,서울 구로구 개봉로3가길23 (개봉동 367-30),37.48514088,126.85415641
GS25구로거성점,서울 구로구 개봉로15길60 (개봉동 339-10),37.48999185,126.85264621
GS25구로경인점,"서울 구로구 경인로35길38, 1층 (개봉동 149-20)",37.49889226,126.8543082
GS25구로계영점,서울 구로구 구로동로20길32 (구로동 739-1),37.48840316,126.886243
GS25구로대박점,서울 구로구 개봉로3가길85 (개봉동 316-10),37.48271954,126.85255391
GS25구로동양점,"서울 구로구 시흥대로163길25, 1층 (구로동 1130-14, 대진월드Ⅰ)",37.48176793,126.89836052
GS25구로디지탈점,"서울 구로구 디지털로33길12,  112호(구로3동 184-1, 우림e-BIZ2차)",37.4864772,126.89608642
GS25구로래미안점,"서울 구로구 디지털로31길86, 상가동 105호 (구로동 256-1, 삼성래미안아파트)",37.48769085,126.89194129
GS25구로럭키점,"서울 구로구 도림로107, 상가 102,103호 (구로동 1257)",37.49207123,126.89400253
GS25구로메트로점,"서울 구로구 디지털로242, 107호 (구로동 851, 한화비즈메트로1차)",37.48079742,126.89285717
GS25구로문성점,"서울 구로구 디지털로32가길72, 101호 (구로3동 1129-18)",37.48055651,126.89696499
GS25구로미래점,"서울 구로구 경인로661, 110-2호 (신도림동)",37.50943863,126.88774025
GS25구로미성점,"서울 구로구 구로중앙로228,  101호(신도림동 399, 기임빌딩)",37.50618913,126.87665906
GS25구로미주점,"서울 구로구 가마산로27길56, 102동 101호 (구로동 107-8, 미주프라자)",37.49924774,126.89060567
GS25구로벚꽃점,서울 구로구 벚꽃로70길1 (구로동 406-6),37.49268111,126.88031045
GS25구로벤처점,"서울 구로구 디지털로285, 104호 (구로3동 212-1, 에이스트윈타워1)",37.48447995,126.89448759
GS25구로빌란트점,"서울 구로구 디지털로32길30, 102호 (구로동 222-7)",37.48344457,126.89650417
GS25구로사거리점,"서울 구로구 경서로55, 1층 일부호 (고척동 136-6)",37.50201781,126.85885219
GS25구로사랑점,"서울 구로구 경인로661,  154호(신도림동 337, 대우미래사랑시티)",37.50943863,126.88774025
GS25구로삼성점,"서울 구로구 디지털로33길27,  103호(구로3동 197-5, 삼성IT밸리)",37.48609419,126.89463341
GS25구로새싹점,서울 구로구 공원로7길18 (구로동 547-11),37.50196144,126.88789642
GS25구로성보점,서울 구로구 가마산로229 (구로동 437-1),37.49426084,126.88633695
GS25구로성우점,"서울 구로구 경인로20나길30,  104호(오류1동 46-1, 이좋은집)",37.49484369,126.84199842
GS25구로솔보점,서울 구로구 서해안로2102 (항동 119-6),37.48009076,126.82346885
GS25구로신화점,서울 구로구 구로중앙로28길35-2 (구로동 112-41),37.49988741,126.88772361
GS25구로싸이언점,"서울 구로구 디지털로34길55,  116호(구로3동 811, 코오롱싸이언스밸리2차)",37.48428973,126.89920544
GS25구로아울렛점,"서울 구로구 경인로43길18, 1층 (고척1동 85-20)",37.49742658,126.86207728
GS25구로연지점,"서울 구로구 오리로1102-10, 상가동 1층 101호 (천왕동 7-1, 천왕연지타운2단지아파트)",37.48290014,126.84427455
GS25구로영서점,"서울 구로구 도림천로12길3, 2층 (구로동 154-7)",37.49012065,126.8954674
GS25구로영흥점,서울 구로구 새말로30(구로5동 571-19),37.50243215,126.88430423
GS25구로오류점,"서울 구로구 오류로54 (오류2동 168-7, 성민빌딩)",37.48949904,126.84001161
GS25구로용마점,"서울 구로구 오리로1316, 1층 (궁동 279)",37.49881031,126.82940656
GS25구로유앤아이점,"서울 구로구 가마산로87, 제상가동 제 1층 104호 (구로동 1281)",37.48652276,126.87607164
GS25구로으뜸점,서울 구로구 오리로13길64 (오류동 245-1),37.48832578,126.83067834
GS25구로은혜점,서울 구로구 중앙로15길87 (고척동 220-16),37.50691703,126.85487551
GS25구로이편한점,"서울 구로구 신도림로16,  101호(신도림동 642, 대림2차)",37.5060378,126.88255402
GS25구로제일점,"서울 구로구 구일로4길33,  상가동 103호(구로1동 685-215)",37.4920074,126.87578591
GS25구로중앙로점,서울 구로구 중앙로3길12 (고척동 76-22),37.50022844,126.86297344
GS25구로중앙유통점,"서울 구로구 경인로53길22,  106호(구로2동 608-2)",37.50232323,126.87661519
GS25구로지벨리몰점,서울 구로구 디지털로300 (구로3동 188-25),37.48487704,126.8964831
GS25구로지타워몰점,"서울 구로구 디지털로26길38, 지하1층 B101호 (구로동 832)",37.47983594,126.8950648
GS25구로진성점,"서울 구로구 도림천로336, 1층 (구로동 73-10, 진성빌딩)",37.49500569,126.89368785
GS25구로천왕점,"서울 구로구 천왕로56, 상가 106,107호 (천왕동 278, 천왕이펜하우스3단지)",37.4820102,126.83897412
GS25구로철길점,"서울 구로구 오리로11길99, 상가동 1층 101호 (오류동 358)",37.48705797,126.83094687
GS25구로코업점,"서울 구로구 경인로20가길19, 1층 101호 (오류동 55-42, 코업 시티 호텔 스테이코)",37.49579062,126.84484492
GS25구로타운점,"서울 구로구 가마산로23길10, 1층 現공실(구로5동 103)",37.49605432,126.88925062
GS25구로타워점,"서울 구로구 디지털로273, 104호 (구로동 212-30, 에이스트윈타워2차)",37.4839447,126.89409973
GS25구로푸르뫼점,서울 구로구 고척로85 (개봉동 60-101),37.50085033,126.8435003
GS25구로하나점,"서울 구로구 오류로8가길6, 103,104호 (오류동 156-1)",37.49085224,126.84201482
GS25구로하우비점,"서울 구로구 구로중앙로28길73, 101호 (구로동 110-5, 구로하우비)",37.50076804,126.88938436
GS25구로하이앤드점,"서울 구로구 디지털로26길61 (구로3동 222-14, 에이스하이엔드타워2차)",37.48117248,126.89538432
GS25구로한일점,"서울 구로구 중앙로15길151,  101동 105호(고척2동 337, 한일유앤아이)",37.50802439,126.85106953
GS25구로행복점,"서울 구로구 연동로13길56, 1층 일부 (항동 16-3)",37.48539431,126.81949601
GS25구로허브점,"서울 구로구 구일로10길27,  B동 105호(구로1동 650-4, SK허브수지)",37.49597141,126.87288797
GS25구로혁신점,"서울 구로구 도림로69, 1층 (구로4동 313-119)",37.48968993,126.89084882
GS25구로현대점,"서울 구로구 신도림로19길16, 1층 現현대마트(신도림동 641)",37.51199002,126.88407147
GS25구로화원점,서울 구로구 구로동로217(구로2동 486-53),37.49793492,126.88229026
GS25구립강서점,"서울 강서구 허준로95-9, 1층 (가양동 1472)",37.56739152,126.85177694
GS25구산부일점,"서울 은평구 갈현로15길24, 1층 (구산동 176)",37.60796917,126.90824661
GS25구산예일점,"서울 은평구 서오릉로11길14, 1층 (구산동 6-17)",37.61123512,126.91456425
GS25구산점,서울 은평구 서오릉로178(갈현2동 489-23),37.61314801,126.9138795
GS25구산중앙점,"서울 은평구 연서로11길20-5, 1층 (구산동 18-20)",37.60887113,126.91322817
GS25구의강변점,서울 광진구 구의강변로64(구의3동 589-10),37.53604265,127.09279134
GS25구의동국점,서울 광진구 광나루로36길28 (구의1동 235-11),37.54371458,127.0862934
GS25구의무학점,"서울 광진구 아차산로51길86, 1층 (구의1동 248-93)",37.54069764,127.08533443
GS25구의미가로점,서울 광진구 아차산로51길41 (구의동 252-4),37.53890934,127.0847905
GS25구의바우점,서울 광진구 아차산로65길78 (구의동 204-27),37.54274478,127.09139747
GS25구의법원점,"서울 광진구 아차산로395,  106호(구의1동 246-3, 민도빌딩)",37.53753368,127.08633488
GS25구의새한점,서울 광진구 아차산로57길41(구의1동 241-96),37.54037942,127.08846146
GS25구의성진점,"서울 광진구 구의강변로45,  103호(구의3동 593-15, 성진프라자빌딩)",37.53493129,127.09122072
GS25구의센터점,"서울 광진구 자양로51길22, 1층 (구의동 28-40, 성보빌딩)",37.5540343,127.09248275
GS25구의스타일점,서울 광진구 광나루로52길98 (구의동 220-52),37.53922439,127.09058021
GS25구의스타점,서울 광진구 광나루로30나길14 (구의동 643-1),37.54351286,127.08235783
GS25구의창원점,서울 광진구 자양로30길79 (구의동 226-18),37.5430349,127.08928915
GS25구의타운점,"서울 광진구 구의강변로96, 상가 107,8호(구의3동 610, 현대)",37.53843511,127.09457283
GS25구의행복점,"서울 광진구 광나루로532, 1층 1호 (구의1동 230-19, 우석빌딩)",37.54468666,127.08848823
GS25구일우성점,"서울 구로구 구일로2길60,  201동 125호 /126호/127호/128호/129호 (구로동 1259, 구일우성아파트)",37.48986088,126.87651917
GS25구파발클라스점,"서울 은평구 진관2로15-46, 103호 (진관동 70, 메트로프라자)",37.63828685,126.91781919
GS25국민대점,"서울 성북구 정릉로10길22, 1층(정릉3동 654-34)",37.60774808,127.00022673
GS25국민사랑점,서울 성북구 정릉로9길40(정릉3동 852-11),37.6104155,126.99920564
GS25국일관점,"서울 종로구 수표로96, 1~2호(관수동 20, 국일관드림팰리스빌딩)",37.56970888,126.9899587
GS25군자능동점,서울 광진구 능동로275 (군자동 1-11),37.55454144,127.07769547
GS25군자동일로점,"서울 광진구 동일로52길3, 1층 (군자동 117-35)",37.5548005,127.07165984
GS25군자본점,"서울 광진구 동일로34길17, 1층 (군자동 351-6)",37.54996325,127.06954694
GS25군자역,"서울 광진구 능동로317, 1층 (중곡동 648-15)",37.55803506,127.07968972
GS25군자원룸점,"서울 광진구 군자로10길26, 1층 (군자동 370)",37.54893826,127.07211733
GS25군자중앙점,서울 광진구 능동로35길41(군자동 471-1),37.55727338,127.07676765
GS25군자행복점,"서울 광진구 천호대로573, 1층(중곡2동 341-7)",37.55660089,127.08181254
GS25군자행운점,서울 광진구 군자로141(군자동 48-24),37.55431156,127.07480094
GS25궁동상지점,"서울 구로구 부일로15길29, 1층 (궁동 208-16, 비치빌딩)",37.49412426,126.83298534
GS25궁동연세점,서울 구로구 부일로19길16 (궁동 197-25),37.49411535,126.83664944
GS25궁동우신점,"서울 구로구 오리로1265, 상가동 1층110호, 111호  (궁동 213-21, 우신빌라)",37.49429797,126.83050607
GS25궁동중앙점,"서울 구로구 부일로11길85, 1층 (궁동 169-2)",37.4967435,126.82997034
GS25그라시움샘터점,"서울 강동구 고덕동217 고덕그라시움 3상가 107,108호 일부",37.55995758,127.1637075
GS25그랑서울본점,"서울 종로구 종로33, 102호 (청진동 70, 그랑서울)",37.57132372,126.98179759
GS25그랜드신협점,서울 강남구 테헤란로521 (삼성동 159-8),37.5090411,127.06090456
GS25금천가온점,서울 금천구 독산로35길13 (시흥동 848),37.45794737,126.90451986
GS25금천구청점,"서울 금천구 시흥대로73길11, 상가동 1층 5,6,7호  (시흥동 109-1)",37.45605965,126.89821781
GS25금천나래점,"서울 금천구 독산로41길69, 1층 (시흥동 854)",37.45787307,126.90233944
GS25금천능선점,"서울 금천구 독산로159, 1층 (시흥동 863-51, 한성빌딩)",37.46158597,126.90434244
GS25금천다온점,"서울 금천구 독산로6가길18, 1층 (시흥동 923)",37.44884199,126.90595236
GS25금천독산로점,"서울 금천구 독산로24길15, 1층 (시흥4동 818-6)",37.45521994,126.90676367
GS25금천르네상스점,"서울 금천구 시흥대로152길11-43,  208동 1호(독산3동 953, 삼부르네상스)",37.47854419,126.9005108
GS25금천무지개점,서울 금천구 시흥대로84마길21 (독산동 1071),37.46223039,126.90096451
GS25금천문일점,"서울 금천구 시흥대로51길23, 1층 104호 (시흥동 991-47)",37.4508512,126.90011384
GS25금천벽산타운점,"서울 금천구 금하로793, 404호B상가동  (시흥동 1010, 벽산아파트)",37.45198655,126.91866678
GS25금천사랑점,"서울 금천구 범안로12길15, 상가 105동 101호 (독산1동 1006-132, 삼환아파트)",37.46577976,126.89219694
GS25금천삼익점,서울 금천구 독산로50다길2 (시흥4동 796),37.46204595,126.91023628
GS25금천스타즈점,"서울 금천구 시흥대로315, 1층 호텔부대시설 (독산동 441-6, 스타즈호텔)",37.45965317,126.89610787
GS25금천영림점,"서울 금천구 시흥대로26길37, 1층 1호 (시흥동 953-9, 영림팰리스)",37.44193865,126.90581556
GS25금천왕창점,서울 금천구 독산로106길19 (독산3동 878-41),37.47804447,126.90491622
GS25금천우림점,"서울 금천구 가산디지털1로168, 외4필지 지상1층104(가산동 371-28)",37.47997007,126.88250139
GS25금천은하수점,"서울 금천구 시흥대로90길16, 1층 (독산동 1065-50)",37.4611864,126.89915991
GS25금천은행점,서울 금천구 독산로42 (시흥동 908-24),37.45101501,126.90611284
GS25금천제일점,서울 금천구 가산로3길54 (가산동 235-34),37.4723882,126.89259684
GS25금천주원점,"서울 금천구 시흥대로123길47, 101동 102호,103호 (독산동 295-6)",37.47137084,126.8955738
GS25금천중앙점,"서울 금천구 시흥대로406, 13호 (독산동 286-8)",37.46968504,126.8983796
GS25금천초교점,서울 금천구 독산로22가길18 (시흥동 204-1),37.45348288,126.91088044
GS25금천타운점,서울 금천구 가산디지털2로169-31(가산동 494-4),37.48201828,126.87615042
GS25금천탑골점,서울 금천구 금하로29길15 (시흥동 263-11),37.45078522,126.91245664
GS25금천태양점,서울 금천구 시흥대로141길47(독산1동 144-49),37.47493875,126.89747718
GS25금천패션점,"서울 금천구 디지털로9길33,  101호(가산동 60-21, 아이티타워)",37.47895069,126.8861911
GS25금천하늘정원점,"서울 금천구 시흥대로39길48-16, 1층 (시흥동 492-15)",37.44724604,126.90098033
GS25금천한빛점,서울 금천구 독산로40길45(시흥4동 799-36),37.46094273,126.90688382
GS25금천해가든점,"서울 금천구 벚꽃로6길3, 101동 지1층 비04호  (독산동 1143, 이랜드해가든아파트)",37.4606467,126.89251005
GS25금천햇빛점,서울 금천구 시흥대로80길17 (독산동 1075-23),37.45909138,126.90060353
GS25금호극동점,"서울 성동구 난계로67, 상가동 104호,105호  (왕십리2동 1058, 극동미라주아파트)",37.55851055,127.02335202
GS25금호로자이점,"서울 성동구 금호로127, 상가동 B3 - 2호 (금호동2가 1215)",37.55289794,127.02237273
GS25금호베스트빌점,서울 성동구 난계로114-31 (하왕십리동 1052),37.5613341,127.02592981
GS25금호벽산점,"서울 성동구 금호로102 (금호동1가 633, 벽산아파트상가동502-2호)",37.55163759,127.02687087
GS25금호사거리점,"서울 성동구 독서당로335, 2층 (금호동1가 1558, 서희빌딩)",37.54828974,127.02626934
GS25금호역점,"서울 성동구 매봉길50, 상가동 B201호 (옥수동 528, 이편한세상옥수파크힐스)",37.5482781,127.01508843
GS25금호예향점,서울 성동구 독서당로265 (금호동4가 1028),37.54685866,127.0188416
GS25길동미래점,"서울 강동구 양재대로110길8, 1층 (길동 432)",37.53547511,127.13976681
GS25길동베네치아점,"서울 강동구 명일로201, 101호 (길동 143-4, 서한베네치아)",37.536896,127.14558915
GS25길동삼익점,"서울 강동구 명일로275, 1층 (길동 48)",37.54332555,127.14753006
GS25길동오네뜨점,"서울 강동구 양재대로124길32, 102호 (길동 339-1, 동서울오네뜨)",37.54260355,127.14363423
GS25길동우림점,"서울 강동구 양재대로124길70, 1층 (길동 342-8)",37.54224111,127.145845
GS25길동우성점,서울 강동구 양재대로116길30 (길동 392-5),37.53820377,127.14203249
GS25길동타운점,서울 강동구 양재대로1518 (길동 347-14),37.54115554,127.1415234
GS25길동퍼스트점,"서울 강동구 양재대로113길14, 1층(길동 379-14)",37.53816525,127.13921539
GS25길동하이브점,"서울 강동구 진황도로100,  외1필지 1층 108호(길동 456-2, 길동하이브)",37.53558309,127.13727626
GS25길음뉴타운점,"서울 성북구 삼양로13길45, 111,112호(길음동 1281-6, 길음뉴타운)",37.6106327,127.01971465
GS25길음동부점,"서울 성북구 삼양로66,  지하 104호(길음2동 1141, 동부클리닉센타)",37.60899507,127.02324722
GS25길음래미안,"서울 성북구 길음로9길50, 상가 112호 (길음동 1286, 길음뉴타운9단지)",37.60385547,127.01954311
GS25길음본점,"서울 성북구 길음로33,  B동 19호(길음동 1284, 상가)",37.60665582,127.02148835
GS25길음센터피스점,"서울 성북구 숭인로50, 108,109,110동 하부근생시설 근생36호 (길음동 498-1)",37.61040014,127.02754415
GS25길음역점,"서울 성북구 동소문로248, 105동 125~6호(길음1동 1276, 삼부아파트)",37.60342817,127.02452048
GS25나눔위례호반점,"서울 송파구 위례송파로80, 101호 근린생활시설  (거여동 607)",37.48413315,127.14231197
GS25나라키움점,"서울 중구 삼일대로340, (1층2-1호)  (저동1가 1-2, 남대문세무서)",37.56502641,126.98819951
GS25나인트리호텔점,서울 중구 마른내로28 (초동 72-10),37.56434703,126.99093664
GS25낙성대동점,서울 관악구 남부순환로244길14(인헌동 1631-5),37.47637004,126.96300788
GS25낙성대역점,"서울 관악구 남부순환로1937, 1층 (행운동 1687-23, 우송빌딩)",37.47691618,126.96466232
GS25낙성대점,"서울 관악구 관악로12길105, 1층(낙성대동 1626-35)",37.47730901,126.95809937
GS25낙성베스트점,"서울 관악구 인헌길35, 1층 (봉천동 1642-16)",37.47398057,126.96693002
GS25난곡성당점,서울 관악구 난곡로26길34 (신림동 638-2),37.47000754,126.92161783
GS25난곡센터점,"서울 관악구 난곡로30길27, 101동 101호 (신림동 630-7, 아름채)",37.47142967,126.92145044
GS25남가좌명지점,"서울 서대문구 거북골로51, 1층 (남가좌동 343-50)",37.578448,126.92259173
GS25남가좌에코점,서울 서대문구 거북골로79 (남가좌동 226-9),37.57676963,126.9203517
GS25남가좌점,"서울 서대문구 증가로117, 1층 (남가좌동 338-6)",37.57695968,126.92439059
GS25남가좌창덕점,"서울 서대문구 모래내로143, 1층 상가 105호 (남가좌동 105-1)",37.56950583,126.91724169
GS25남가좌홍제천점,"서울 서대문구 모래내로207, 102호, 103호 (남가좌동 80-26, 마마스빌딩)",37.57323874,126.9224517
GS25남강학사점,"서울 관악구 난곡로181, 1층 (신림동 704-13, 성수빌딩)",37.47128505,126.91942889
GS25남구로가온점,"서울 구로구 디지털로27길120, 104호 (구로동 798-34)",37.48497602,126.88782035
GS25남구로점,"서울 구로구 도림로41-1, ,33 (구로4동 770-32)",37.48789504,126.88873822
GS25남구로포인트점,"서울 구로구 디지털로27길50, 1층 (구로동 252-96)",37.4839198,126.89144294
GS25남대문시장점,"서울 중구 퇴계로43 (남창동 47-14, 남대문지하철상가1층1호)",37.55814846,126.97739298
GS25남대문타운점,"서울 중구 남대문로30, 2층(남창동 1-1)",37.56071436,126.97923682
GS25남산단암점,서울 중구 소월로10 (남대문로5가 120),37.55852799,126.97544103
GS25남산서울타워점,"서울 용산구 남산공원길105, 1층 112호 (용산동2가 산1-3, 서울타워플라자)",37.54903019,126.98893636
GS25남산제일점,서울 중구 퇴계로18길16-1 (남산동1가 6-5),37.56015411,126.98532256
GS25남산조이점,서울 중구 소공로6길22 (남산동1가 18-2),37.5583333,126.98419278
GS25남산필동점,"서울 중구 필동로52, 1층 (필동2가 119-4)",37.55702495,126.99556265
GS25남영역점,서울 용산구 한강대로259(갈월동 101-41),37.54171641,126.97254797
GS25남현번영점,"서울 관악구 승방4길27, 1층(남현동 602-38)",37.47489074,126.98042786
GS25남현으뜸점,"서울 관악구 승방길71, 지하1층 (남현동 602-121, 한성파크)",37.4725118,126.97832345
GS25남현태양점,서울 관악구 남부순환로260길36(남현동 1054-37),37.47466746,126.972336
GS25내곡포레스타점,"서울 서초구 청계산로7길43, 101호 (신원동 374, 서초포레스타5단지제상가동제1층)",37.45097198,127.05690668
GS25내발산프라임점,"서울 강서구 수명로68-11, 102호,103호,104호,105호 (내발산동 750-7)",37.5523032,126.82652193
GS25노고산본점,서울 마포구 신촌로16길8(노고산동 49-50),37.55535704,126.9347967
GS25노고산점,"서울 마포구 신촌로12다길15, 1층(노고산동 54-44)",37.55489463,126.9334791
GS25노고산호호점,"서울 마포구 신촌로20길12, 101호 (노고산동 31-23)",37.55463883,126.93808907
GS25노들역점,"서울 동작구 노량진로23가길23, 105호 (본동 494, 래미안트윈파크)",37.51407905,126.95076748
GS25노들제일점,"서울 동작구 노량진로252, 1층 (본동 48, 이치과의원)",37.51228375,126.95458192
GS25노량메가점,"서울 동작구 노량진로140, 1층 103호 (노량진동 57-1, 메가스터디타워)",37.51289858,126.94166698
GS25노량스터디점,"서울 동작구 만양로73, 1층 (노량진1동 224-17)",37.50999948,126.94494287
GS25노량아이비점,"서울 동작구 장승배기로171, 1층(노량진1동 45-3, 아이비빌딩)",37.51318928,126.93992091
GS25노량아카데미점,"서울 동작구 노량진로14가길11, (82번지나루아카데미빌딩지하1층)  (노량진1동 81, 나루아카데미)",37.51292936,126.94309179
GS25노량제일점,"서울 동작구 노량진로148-3, 1층(노량진1동 72-3)",37.51340948,126.94237239
GS25노량진본점,"서울 동작구 노량진로8길40, 1층 (노량진동 258-42)",37.51240983,126.9374095
GS25노량진수산시장점,"서울 동작구 노들로674, 지상2층 편의점호 (노량진동 13-6)",37.51463793,126.93668789
GS25노량진타운점,서울 동작구 노량진로200 (노량진동 141),37.51288218,126.94789982
GS25노원구점,서울 노원구 노해로75길14-26(상계6.7동 708-3),37.65455275,127.05888233
GS25노원두산점,서울 노원구 동일로241가길21 (상계동 1105-70),37.6764058,127.05362971
GS25노원두타점,"서울 노원구 한글비석로245,  B동 126호(중계1동 360-9, 중계두타빌)",37.64975313,127.07634929
GS25노원롯데점,"서울 노원구 동일로1426, 104호 (상계동 693, 미도빌딩)",37.65599844,127.06051873
GS25노원상계로점,"서울 노원구 상계로97, 1층 107호 (상계동 366-3, 노원위너스빌딩)",37.65710223,127.06562752
GS25노원상계본점,서울 노원구 덕릉로854 (상계동 71-49),37.6722517,127.083246
GS25노원수락산역점,서울 노원구 동일로242가길16(상계1동 1117-68),37.67655119,127.05603117
GS25노원스타점,"서울 노원구 동일로1456, 103,110,111호  (상계동 692, 상계주공7단지상가)",37.65858261,127.0602935
GS25노원아이파크점,"서울 노원구 상계로23다길13-8, 101동 118,119호(상계2동 1318, 노원아이파크)",37.65999609,127.06924075
GS25노원역점,"서울 노원구 상계로74, 1층 (상계동 333)",37.6560189,127.06309112
GS25노원웰빙점,"서울 노원구 상계로1길14-11, , 6하이웰빙25코아 A-101 (상계2동 603-2)",37.6569912,127.0618549
GS25노원정보도서관점,"서울 노원구 노원로34길62, 1층 (상계동 430-4)",37.66170884,127.06592114
GS25노원중앙점,"서울 노원구 동일로218길41, 101호 (상계6.7동 725-4, 영보빌딩)",37.65418115,127.06313688
GS25노원청산점,"서울 노원구 노해로451,  1층 2호(상계6.7동 705-2, 청산빌딩)",37.65409676,127.05819677
GS25노원파르코점,"서울 노원구 동일로1700,  1층 20호(상계1동 1267, 파르코상가)",37.68018052,127.0558038
GS25노원포레나점,"서울 노원구 노원로38길76, 상가동 106,107호 (상계동 680)",37.66399558,127.0622768
GS25노원하계점,서울 노원구 공릉로58길87 (하계1동 168-2),37.63573598,127.0732824
GS25노원한신점,서울 노원구 한글비석로24라길96 (상계동 135-20),37.6660433,127.06940327
GS25노유점,서울 광진구 동일로20길78(자양4동 6-39),37.54012723,127.06770026
GS25노유타운점,"서울 광진구 동일로4길50-2, 1층 (자양동 52-163)",37.53568804,127.06352372
GS25녹번가로길점,"서울 은평구 은평로21길36, 1층 (녹번동 89)",37.60280256,126.93047387
GS25녹번본점,"서울 은평구 통일로590, 상가 B동 108,109호 (녹번동 276)",37.60007714,126.93697925
GS25녹번역점,서울 은평구 통일로639(녹번동 35-96),37.60384006,126.93460404
GS25녹번유림점,"서울 은평구 통일로626, 1층 (녹번동 38-29, 유림빌딩)",37.60254078,126.935404
GS25녹번점,서울 은평구 통일로685(녹번동 117-61),37.60732518,126.93240244
GS25녹번중앙점,"서울 은평구 녹번로9길19, 1층 (녹번동 120-17)",37.60761445,126.92952156
GS25녹번파크점,"서울 은평구 녹번로40, 상가 1층 (녹번동 100-55, 현대아파트)",37.60491712,126.92916383
GS25녹번퍼스트점,서울 은평구 은평로215 (녹번동 218),37.60139869,126.93166043
GS25녹번푸르지오점,"서울 은평구 통일로660, 상가 211호 부터 215호 (녹번동 281)",37.60663123,126.93637633
GS25녹번현대점,"서울 은평구 서오릉로46, 상가 (녹번동 278-1, 녹번2차현대아파트)",37.60507351,126.92456349
GS25녹번힐스점,"서울 은평구 은평로240, 힐스테이트녹번역아파트 상가 B329호 (응암동 1-12)",37.60066669,126.93441148
GS25녹천본점,"서울 도봉구 덕릉로349,  일반상가 104호 (창1동 373, 주공4단지)",37.64582722,127.04721882
GS25녹천역점,"서울 도봉구 덕릉로66길53,  101호(창4동 38-5, 주공17단지상가)",37.64423621,127.05329013
GS25논현77점,서울 강남구 학동로33길46 (논현동 77),37.51773009,127.03223221
GS25논현경남점,서울 강남구 학동로42길73(논현2동 262-32),37.51099032,127.03775994
GS25논현금옥점,서울 강남구 강남대로132길48(논현1동 56),37.51294025,127.02502075
GS25논현누리점,"서울 강남구 학동로47길16, 1층 (논현동 112)",37.51771066,127.03868044
GS25논현대지본점,서울 강남구 강남대로124길5 (논현동 143-23),37.5088604,127.02307178
GS25논현동국점,서울 강남구 논현로131길6(논현1동 37-16),37.51464633,127.02977212
GS25논현동부점,"서울 강남구 학동로30길49,  101호(논현2동 220-18)",37.51107988,127.03327953
GS25논현동우점,"서울 강남구 봉은사로37길13, 1층 (논현동 232-5)",37.5091778,127.03648245
GS25논현동현점,서울 강남구 도산대로50길27(논현2동 99-19),37.5206133,127.03772687
GS25논현드림점,"서울 강남구 봉은사로1길9, 1층 (논현동 199-24)",37.50541456,127.02479063
GS25논현마루점,서울 강남구 봉은사로11길26(논현1동 188),37.50750869,127.02851854
GS25논현목련점,"서울 강남구 강남대로124길60, 1층 (논현1동 147, 영진빌딩)",37.51047634,127.02671554
GS25논현무궁화점,"서울 강남구 봉은사로143, 102호 (논현동 205-8, 운현오피스텔)",37.50645876,127.03013824
GS25논현미래점,서울 강남구 강남대로112길20 (논현1동 201-5),37.5055061,127.0260562
GS25논현보람점,서울 강남구 논현동254-22번지 1층,37.51366582,127.04100597
GS25논현사랑점,"서울 강남구 논현로123길40, 1층(논현1동 133-32)",37.51080815,127.02871331
GS25논현삼익점,"서울 강남구 강남대로132길10,  101호(논현1동 51, 로뎀빌딩)",37.51217585,127.02193136
GS25논현성암점,"서울 강남구 선릉로605, 1층 (논현동 278-6, HJ빌딩)",37.51086452,127.0433493
GS25논현스카이점,"서울 강남구 도산대로8길15, 지하1층 (논현동 13-16)",37.51601841,127.02242419
GS25논현스타점,"서울 강남구 도산대로26길23, 1층 (논현동 33)",37.51764297,127.02820617
GS25논현아크로점,"서울 강남구 언주로114길9, 1층 (논현동 275-5)",37.51006684,127.03832604
GS25논현역5점,서울 서초구 강남대로545-4 (반포동 706-10),37.51052899,127.02109321
GS25논현영동시장점,"서울 강남구 강남대로122길20, 101호 (논현1동 166-4)",37.50804414,127.02460938
GS25논현영동점,"서울 강남구 학동로2길19, 1층 (논현1동 141-7, 세일빌딩)",37.51013845,127.02289677
GS25논현우람점,"서울 강남구 학동로6길48, 1층 (논현1동 159-11)",37.5092369,127.02610953
GS25논현으뜸점,서울 강남구 봉은사로21길21(논현1동 189-14),37.50803042,127.03060427
GS25논현은선점,"서울 강남구 선릉로127길12, 1층 (논현동 242-13, 현진빌딩)",37.51555526,127.04066506
GS25논현이편한점,"서울 강남구 봉은사로11길12 (논현동 195-1, 논현e편한세상)",37.50684384,127.02875337
GS25논현정노점,"서울 강남구 봉은사로25길37, 1층 (논현동 176-11)",37.5095351,127.03169329
GS25논현진실점,서울 강남구 언주로121길8(논현2동 218-22),37.51169731,127.03495696
GS25논현초교점,"서울 강남구 강남대로120길30, 1층 (논현동 181)",37.50746981,127.02598544
GS25논현최강점,"서울 서초구 신반포로329, 1층 1,2호 (잠원동 40-9, 세기빌딩)",37.51080397,127.01948342
GS25논현타운점,"서울 강남구 강남대로124길36, 1층(논현1동 159)",37.50930422,127.02553179
GS25논현파라곤점,서울 강남구 언주로130길18(논현2동 246-3),37.51496611,127.03691707
GS25논현평화점,서울 강남구 논현로115길69(논현1동 170-2),37.50832028,127.02750136
GS25논현하니점,서울 강남구 논현로131길31 (논현동 57-9),37.51380108,127.02779221
GS25논현학동점,서울 강남구 논현로146길11(논현2동 66-35),37.51822452,127.02989548
GS25논현한영점,"서울 강남구 논현로114길11,  B1호(논현2동 229-26, 혜광빌딩)",37.50883553,127.03429253
GS25논현행운점,서울 강남구 강남대로150길11(논현1동 1-5),37.51604086,127.02078366
GS25농협중앙회신협점,"서울 중구 새문안로16, 지하2층 (충정로1가 75-1)",37.56636877,126.96839476
GS25뉴가재울삼성점,"서울 서대문구 수색로6길17-14, 105, 106호 (북가좌동 484)",37.5711634,126.91230471
GS25뉴가주초교점,서울 송파구 송이로23길52-42 (가락동 153-8),37.49723816,127.12802555
GS25뉴개포영광점,"서울 강남구 논현로4길12, 1층 (개포동 1168)",37.47257025,127.05125397
GS25뉴고대민주광장점,"서울 성북구 고려대로113, B1  (안암동5가 43, 인촌로1빌딩)",37.58657627,127.03188505
GS25뉴고대안암점,"서울 성북구 개운사길15, 1층 (안암동5가 101-16)",37.58712099,127.0290926
GS25뉴고대우신향점,"서울 성북구 안암로95-3, 1층 (안암동5가 103-134)",37.58447707,127.03081397
GS25뉴고덕샘터점,서울 강동구 동남로82길117 (고덕동 256-7),37.56042401,127.163408
GS25뉴고척한솔점,"서울 구로구 고척로141, 1층 (고척동 253-216)",37.50285503,126.84948621
GS25뉴관악예은점,"서울 관악구 남부순환로224길21, 1층 (봉천동 854-5)",37.47991601,126.95333706
GS25뉴관악청룡점,"서울 관악구 쑥고개로112, 1층 (봉천동 1573-1)",37.47887582,126.94882905
GS25뉴광희제일점,"서울 중구 퇴계로342, 1층 (광희동2가 176)",37.56432412,127.00951187
GS25뉴구로가온점,"서울 구로구 도림로14길15, 1층 (구로동 779-5)",37.48732727,126.88968515
GS25뉴구로삼거리점,서울 구로구 구로동로171 (구로동 415-9),37.49379594,126.88290607
GS25뉴구산가온점,"서울 은평구 서오릉로17길18, 1층 (구산동 363-17)",37.61354589,126.90817641
GS25뉴구파발점,"서울 은평구 진관3로67, 905(상가)동 1층 102호 (진관동)",37.64146142,126.92207888
GS25뉴국제호텔점,"서울 중구 세종대로22길12, 1층 (태평로1가 25-3, 뉴국제호텔)",37.56804553,126.97781236
GS25뉴금천갑을점,"서울 금천구 디지털로9길32, 110호 (가산동 60-5)",37.47947678,126.88751744
GS25뉴금천벽산점,"서울 금천구 벚꽃로244, 107호 (가산동 60-73, 벽산디지털밸리5차)",37.47668543,126.88580641
GS25뉴금천유진점,"서울 금천구 두산로5길58, 외 1필지  상가 104, 105호 (가산동 235-57, 드림캐슬주상복합아파트)",37.47314698,126.89087853
GS25뉴내발산점,"서울 강서구 강서로45나길59, 도화엘리시아 102 지1층 (내발산동 718-20)",37.55072495,126.83547583
GS25뉴답십리도서관점,서울 동대문구 답십리로38길13 (답십리동 474-8),37.57366975,127.05030116
GS25뉴대방등용점,"서울 동작구 등용로101, 1층 (대방동 20-25, 한스빌)",37.51025095,126.93181852
GS25뉴도봉극동,"서울 도봉구 도봉로180길53, 1층 (도봉동 81-1)",37.68245532,127.04959616
GS25뉴도봉신동아점,"서울 도봉구 방학로203, 102호 (방학동 272, 신동아상가)",37.66091259,127.0297871
GS25뉴독산캐슬점,"서울 금천구 벚꽃로40, 114동 121호 (독산동 1147, 금천롯데캐슬골드파크1차)",37.45917321,126.89296131
GS25뉴마곡12단지점,"서울 강서구 마곡중앙1로26, 103호 (마곡동 798-12, 엠리체)",37.55846698,126.82387867
GS25뉴마곡14단지점,"서울 강서구 마곡중앙로33, 판매시설동 108호 (마곡동 750, 마곡엠밸리14단지)",37.55696768,126.82442286
GS25뉴마천중앙점,서울 송파구 거마로20길27 (마천동 128-63),37.49705112,127.1493343
GS25뉴모래내제일점,서울 서대문구 수색로2길8 (남가좌1동 102-16),37.56916366,126.91628445
GS25뉴번동기쁨,"서울 강북구 오현로35길62, 101호, 102호 (번동 234-2)",37.63195098,127.03829838
GS25뉴사당타운점,"서울 동작구 남부순환로269길97, 1층 (사당동 439-4)",37.47943303,126.97429459
GS25뉴삼성아트점,"서울 강남구 테헤란로103길8-10, 1층 (삼성동 169-25)",37.5101468,127.06512107
GS25뉴상도성대점,서울 동작구 성대로8길2 (상도동 259-16),37.49814321,126.93407191
GS25뉴서강대학사점,"서울 마포구 백범로35, 1층 106호 (신수동 1-1, 곤자가플라자)",37.55118854,126.93916789
GS25뉴서초4점,"서울 서초구 서초중앙로63-8, 1층 (서초동 1598-7)",37.48754867,127.01417885
GS25뉴서초중앙점,"서울 서초구 사임당로26, 1층 (서초동 1597-1)",37.4876464,127.01293372
GS25뉴석촌센타점,"서울 송파구 가락로95, 1층 (석촌동 272-25)",37.50101583,127.10661741
GS25뉴성북동아점,"서울 성북구 장월로1길57, 1층 104호,105호 (상월곡동 57-3)",37.60594001,127.04520222
GS25뉴성수뚝도점,서울 성동구 성수이로26 (성수동2가 335-230),37.53761632,127.05448132
GS25뉴송파스타힐스점,"서울 송파구 위례광장로215, 상가 (장지동 885, 위례스타힐스)",37.48135803,127.14481989
GS25뉴시흥대로점,"서울 금천구 시흥대로349, 1층 전체 (독산동 1009-31)",37.4646821,126.89718695
GS25뉴신당센터점,"서울 중구 퇴계로88길48, 1층 (신당동 145-6)",37.56366484,127.02012668
GS25뉴신림로데오점,"서울 관악구 봉천로6길30, 1층 (신림동 1454-1)",37.48831584,126.92545939
GS25뉴신림사랑점,"서울 관악구 신림동1길21, 1층 (신림동 1431-25)",37.48651477,126.92854951
GS25뉴신림신원점,서울 관악구 남부순환로168길42 (신림동 1583-23),37.48104208,126.92421808
GS25뉴신월삼정점,"서울 양천구 남부순환로69길13, 1층 (신월동 420-15)",37.52326042,126.8381202
GS25뉴신촌행복점,"서울 서대문구 신촌로61, 1층 (창천동 72-25)",37.55666945,126.93345381
GS25뉴양재강남점,"서울 서초구 강남대로6길66-18, 1층 (양재동 358-6)",37.46782411,127.04484764
GS25뉴양재시장점,"서울 서초구 남부순환로356길70, 1층 (양재동 15-25)",37.48178362,127.0384399
GS25뉴역삼월드점,"서울 강남구 역삼로52길14, 101호 (역삼동 754-2)",37.49852102,127.04792876
GS25뉴연남제일점,"서울 마포구 연남로3길61, 1층 (연남동 565-1)",37.5598329,126.91966803
GS25뉴온수역점,"서울 구로구 경인로3길82, 1층 (온수동 53-4)",37.49188355,126.82328388
GS25뉴왕십리동진점,서울 성동구 왕십리로381-1 (하왕십리동 893-3),37.56457489,127.02775531
GS25뉴은평타운점,"서울 은평구 진관2로90, 320동 B106호 (진관동 107, 은평뉴타운 마고정 상가)",37.63396064,126.92754622
GS25뉴은평행운점,서울 은평구 갈현로1길6 (신사동 16-20),37.59940393,126.90960616
GS25뉴을지로입구점,"서울 중구 을지로지하 42, 202의 104호 (을지로1가 100-1)",37.56612668,126.9820268
GS25뉴자양대동점,"서울 광진구 뚝섬로511, 1층 GS25뉴자양대동점 (자양동 553-205)",37.53578021,127.06719994
GS25뉴잠실점,"서울 송파구 오금로11길30, 102호 (방이동 59-3)",37.51502829,127.11033038
GS25뉴잠실희망점,"서울 송파구 올림픽로10길36, 1층 (잠실동 200-3)",37.50851795,127.08146301
GS25뉴장충행복점,서울 중구 장충단로189 (장충동1가 57-9),37.56155481,127.0059265
GS25뉴충무로명보점,"서울 중구 마른내로51, 중구인현 (인현동1가 101-1, 인더라인)",37.56452366,126.99368485
GS25뉴평창파크팰리스점,"서울 종로구 평창문화로87, 상가동 (평창동 153-3, 평창파크팰리스)",37.60726062,126.97077494
GS25뉴한강세빛섬점,"서울 서초구 올림픽대로2085-14, 1층 (반포동 650, 세빛섬(가빛))",37.51143934,126.99325556
GS25뉴한성대점,"서울 성북구 삼선교로10길23, 1층 (좌측) (삼선동2가 150)",37.58718302,127.00944682
GS25뉴화양타운점,서울 광진구 능동로13길89 (화양동 33-20),37.54536789,127.06840452
GS25능동사랑점,"서울 광진구 능동로258, 1층 코너 (능동 283-6, 천지빌딩)",37.55295442,127.07754526
GS25능동중앙점,"서울 광진구 능동로36길95, 1층(능동 246-4)",37.55460967,127.08414581
GS25능동타운점,"서울 광진구 능동로32길65, 1층 (능동 234-35)",37.55420591,127.08204564
GS25다동타운점,"서울 중구 다동길43, 1층 (다동 70, 한외빌딩)",37.56819532,126.98159114
GS25답십리동아점,"서울 동대문구 답십리로60길134, 상가동 103호 (답십리동 10-3, 동아아파트상가)",37.56769701,127.06171946
GS25답십리래미안점,"서울 동대문구 답십리로130 (답십리동 1003, 래미안위브)",37.57124416,127.05344506
GS25답십리센터점,"서울 동대문구 사가정로5길1, 1층 (전농동 325-139)",37.57617752,127.05514871
GS25답십리역점,"서울 동대문구 고미술로57, 상가 14호 (답십리동 994)",37.56692329,127.05396385
GS25답십리우성점,"서울 동대문구 답십리로57길53, 상가동 101호 (답십리동 80-1, 답십리청솔우성아파트상가)",37.57511667,127.06109429
GS25답십리중앙점,"서울 동대문구 천호대로265, 1층 (답십리1동 496-1)",37.56830798,127.05135407
GS25답십리청마루점,"서울 동대문구 답십리로59길6, 외1필지 (답십리동 2-148)",37.57300984,127.06584145
GS25답십리청솔점,서울 동대문구 답십리로51길14-13 (답십리동 89-13),37.57391947,127.05898102
GS25답십리타운점,"서울 동대문구 전농로53, 1층 (답십리동 260-1)",37.5697489,127.05688266
GS25답십리한신점,"서울 동대문구 한천로17길23, 1층(답십리2동 4-73)",37.56990407,127.06278983
GS25답십리한양점,"서울 동대문구 답십리로182, 1층 (답십리2동 62-19)",37.5726685,127.06029862
GS25답십리한천로점,"서울 동대문구 한천로37길19 (답십리동 1-548, 창승빌딩)",37.5763219,127.06650199
GS25당고개점,"서울 노원구 덕릉로126길11, 1층 (상계동 67)",37.67063647,127.08178092
GS25당곡역점,"서울 관악구 신림로391, 1층 (신림동 1429-1)",37.48904014,126.92782366
GS25당산NC점,"서울 영등포구 양평로49, 1층 (당산동5가 16-1, 대림빌딩)",37.53408867,126.90095176
GS25당산SK점,"서울 영등포구 당산로41길11, E-109-2 (당산동4가 80)",37.53084678,126.89825001
GS25당산강변점,"서울 영등포구 버드나루로130, 상가 1층(당산동6가 376, 강변래미안)",37.52982199,126.90821005
GS25당산계룡점,"서울 영등포구 국회대로55길10, 제1층-1  (당산동 121-162)",37.52605667,126.9083215
GS25당산골드점,"서울 영등포구 국회대로37길25, 105호 106호 (당산동4가 32-2)",37.52905692,126.90052779
GS25당산공원점,서울 영등포구 양산로19길11 (당산동3가 398-3),37.52536442,126.89492534
GS25당산금호점,서울 영등포구 국회대로37길15(당산동4가 32-102),37.52834915,126.89999512
GS25당산대로점,서울 영등포구 당산로32길1-11(당산동3가 190),37.52699842,126.89718657
GS25당산대우점,"서울 영등포구 당산로30길9, 1층 (당산동3가 223-6)",37.52563357,126.89769314
GS25당산래미안점,"서울 영등포구 당산로214, 상가 2동 1층 102호 (당산동5가 42, 당산삼성래미안)",37.53189072,126.9029527
GS25당산미래점,"서울 영등포구 영등포로106, 102동 106호 (당산동2가 16-1, 대우아파트)",37.52152621,126.89302486
GS25당산삼환점,서울 영등포구 영중로157-11 (영등포동8가 85-12),37.53037669,126.90486432
GS25당산새말점,서울 영등포구 영등포로25길5 (당산동1가 24),37.52158739,126.89763954
GS25당산쉐르빌점,"서울 영등포구 당산로45길1, 상가 110호 (당산동5가 9-2, 쉐르빌)",37.53326526,126.90057915
GS25당산스타점,"서울 영등포구 영신로219,  106호(당산동4가 1-2, 코오롱스타폴리스)",37.52734862,126.90286083
GS25당산양남점,서울 영등포구 선유동1로12-1(당산동2가 111),37.52319109,126.89184634
GS25당산양평점,"서울 영등포구 양평로16, 21번지 대정프라자(당산동6가 216-8)",37.53283379,126.90456816
GS25당산양화점,"서울 영등포구 선유로52길11, 1층 (당산동6가 342, 석천)",37.53587786,126.89956772
GS25당산역점,"서울 영등포구 양평로64, 1층 (당산동6가 338-1, 한경빌딩)",37.53523342,126.90002978
GS25당산정고을점,서울 영등포구 당산로49길20(당산동6가 350-14),37.53642447,126.90117772
GS25당산진미점,"서울 영등포구 버드나루로19길5 (당산동 121-115, 찬솔원룸)",37.5283909,126.90740501
GS25당산하나점,"서울 영등포구 영등포로103, 106호 (당산동2가 37, 하나비즈타워)",37.52203178,126.89313052
GS25당산한강점,서울 영등포구 당산로48길11 (당산동6가 293-1),37.53475094,126.9033747
GS25당산현대점,"서울 영등포구 국회대로29길3, 1층 (당산동4가 92, 현대아파트)",37.52894358,126.89610575
GS25당산효성점,"서울 영등포구 당산로205, 상가 104호 (당산동5가 9-3, 당산역효성해링턴타워오피스텔)",37.53275674,126.90015667
GS25대륭포스트점,"서울 구로구 디지털로306,  1층 102호(구로3동 182-13, 대륭포스트타워ⅱ)",37.48593862,126.89727031
GS25대림그랜드점,"서울 영등포구 대림로198, 101호 (대림동 689-1, 대경빌딩)",37.49849392,126.89863506
GS25대림나누리점,서울 영등포구 대림로31길26(대림3동 732-5),37.49628867,126.89598724
GS25대림도신로점,서울 영등포구 도신로36(대림3동 605-28),37.50457933,126.89706404
GS25대림밸리소홈점,서울 영등포구 대림동1101-7번지,37.48659614,126.90014404
GS25대림본점,서울 영등포구 디지털로54가길2(대림2동 1024-11),37.48879386,126.90296137
GS25대림소망점,"서울 영등포구 가마산로329, 1층(대림3동 778-32, 소망빌딩)",37.49916229,126.89591101
GS25대림승리점,서울 영등포구 도림로47길13 (대림동 694-6),37.49631563,126.89984318
GS25대림역점,서울 영등포구 대림로29길43 (대림3동 808-26),37.49377013,126.89549282
GS25대림우성점,"서울 구로구 도림로22길8, 상가동 102호, 103호 (구로동 1260)",37.48977377,126.8940251
GS25대림유진점,서울 영등포구 가마산로45길6 (대림동 668-10),37.50275491,126.89949988
GS25대림으뜸점,서울 영등포구 도림로41길6(대림3동 710),37.49447211,126.89829833
GS25대림제일점,"서울 영등포구 시흥대로591, 1층 일부 (대림동 994-4)",37.48573972,126.90300604
GS25대림춘혜점,서울 영등포구 대림로219 (대림3동 779-8),37.50014701,126.89715186
GS25대림파밀리에점,"서울 영등포구 도림로54길16, 상가동 103호,105호 (대림동 1124)",37.4952252,126.9027316
GS25대림한신점,서울 영등포구 디지털로413(대림1동 879-1),37.49346297,126.9041144
GS25대방경남점,"서울 동작구 여의대방로54길14, 1층 (대방동 344-1, 경준빌딩)",37.51187164,126.92671666
GS25대방서울점,"서울 동작구 상도로17-8 (대방동 397-26, 새문빌딩 101,102호)",37.50024698,126.9226307
GS25대방성남점,서울 동작구 대방동23길18(대방동 376-28),37.50415559,126.92439546
GS25대방쉐르빌점,"서울 동작구 등용로49, A동 B01호 (대방동 5-2)",37.50593671,126.93301103
GS25대방승화점,"서울 동작구 대방동길97, ,29 지하2층(대방동 383-28)",37.50593937,126.92337455
GS25대방역점,"서울 영등포구 여의대방로62길2, 1층 (신길7동 1432, 봉덕빌딩)",37.51380853,126.92667761
GS25대방중앙점,서울 동작구 여의대방로36길4 (대방동 389-3),37.50391263,126.92245361
GS25대방타운점,서울 동작구 여의대방로24라길32 (대방동 402-7),37.49938199,126.92263182
GS25대방현대점,"서울 동작구 등용로127, 종합상가 가동 102호 (대방동 502, 현대)",37.51267446,126.93078858
GS25대조엘점,서울 은평구 통일로69길37 (대조동 31-11),37.60977428,126.92526597
GS25대조온누리점,"서울 은평구 연서로20길28, 1층(대조동 214-1)",37.61427643,126.92098762
GS25대조초교점,"서울 은평구 연서로18길10-1, 1층 101호 (대조동 225-5, 대조동창희빌라)",37.61204754,126.9186526
GS25대조초롱점,"서울 은평구 통일로65길13-18, 1층 (대조동 15-119)",37.60872459,126.92873549
GS25대조포인트점,"서울 은평구 서오릉로8길7, 1층 (대조동 64-7)",37.60828919,126.92247853
GS25대조해오름점,"서울 은평구 통일로67길11,  1층 101호(대조동 9-40, 해오름시티)",37.61060216,126.92811959
GS25대조행운점,"서울 은평구 역말로9길7, 101호 (대조동 171-1)",37.61184925,126.92160034
GS25대치SK타운점,"서울 강남구 삼성로51길25, 104,105호 (대치동 612, 대치SK-VIEW아파트)",37.49569301,127.06047236
GS25대치골드점,"서울 강남구 선릉로86길48 (대치4동 896-52, 동창빌딩)",37.50408127,127.05362636
GS25대치대명점,"서울 강남구 영동대로85길17, B동 122호 (대치동 950, 우정에쉐르)",37.50688037,127.06226628
GS25대치래미안점,"서울 강남구 남부순환로2927, 1층 117호 (대치동 622, 대치 클래시아)",37.49389774,127.06020082
GS25대치명문점,"서울 강남구 선릉로90길56, 1동 101호 (대치4동 891-23, 대우아이빌명문가)",37.50507151,127.05351207
GS25대치미래점,"서울 강남구 역삼로63길24,  1층 101호(대치4동 900)",37.50278866,127.05199141
GS25대치사랑점,"서울 강남구 역삼로77길7, 1층(대치4동 904-19)",37.50295803,127.05626447
GS25대치삼성점,"서울 강남구 테헤란로98길8, 1층(대치2동 945-10, KT&G코스모대치타워)",37.50768918,127.06199602
GS25대치삼성타운점,"서울 강남구 도곡로78길22, 상가동 112,113호 (대치동 1014-3)",37.4963337,127.05832692
GS25대치삼호점,서울 강남구 테헤란로108길11(대치2동 997-9),37.50871313,127.06613431
GS25대치선릉점,"서울 강남구 선릉로86길16, 1층(대치4동 897-33)",37.50325827,127.0510015
GS25대치스카이점,"서울 강남구 역삼로558, 1층 (대치동 968)",37.50473321,127.06420459
GS25대치에이스점,서울 강남구 삼성로71길41 (대치4동 916-11),37.50120428,127.05555141
GS25대치오토웨이점,"서울 강남구 영동대로417, 지하1층 (대치동 948)",37.50651022,127.06331149
GS25대치은마점,"서울 강남구 영동대로57길16, 1층 (대치동 992-4)",37.50000852,127.0660844
GS25대치은마타운점,서울 강남구 삼성로58길11 (대치동 989-6),37.49878852,127.06222046
GS25대치은행점,서울 강남구 삼성로64길35 (대치2동 976-7),37.50070638,127.06318042
GS25대치제일점,"서울 강남구 선릉로72길20, 1층(대치4동 920-8)",37.50033555,127.05283672
GS25대치중앙점,"서울 강남구 역삼로78길26,  1층 101호(대치4동 916-40)",37.50076834,127.05737776
GS25대치타운점,"서울 강남구 선릉로76길25, 1층 (대치동 900-13, 진범빌딩)",37.50200007,127.05253295
GS25대치타워점,"서울 강남구 선릉로90길36, 1층 (대치4동 890-47, 미소빌딩)",37.50466393,127.05212604
GS25대치학여울점,"서울 강남구 영동대로213,  101호(대치2동 994-12)",37.49785683,127.06859924
GS25대치학원점,서울 강남구 도곡로511(대치2동 988-17),37.49966246,127.06220953
GS25대치희망점,"서울 강남구 삼성로307, 1층 101호 (대치4동 941-16)",37.49940383,127.06027884
GS25대한제당점,"서울 송파구 올림픽로299, B1 (신천동 7-23)",37.51532819,127.10351702
GS25대흥백범점,"서울 마포구 백범로20길26, 1층 (대흥동 440-2)",37.54581707,126.9440535
GS25대흥큰우물점,"서울 마포구 큰우물로39-4, 1층 (대흥동 575)",37.5433953,126.9432729
GS25덕수궁캐슬점,"서울 중구 서소문로9길28, B114호 (순화동 217, 덕수궁롯데캐슬)",37.56348012,126.96984949
GS25덕수점,서울 중구 세종대로89 (태평로2가 362-1),37.56446577,126.976469
GS25도곡STX점,서울 강남구 논현로24길17(도곡2동 450-5),37.48189484,127.04437458
GS25도곡럭키본점,"서울 강남구 남부순환로365길56, 104호 (도곡동 895-4)",37.48910588,127.04024578
GS25도곡렉슬점,"서울 강남구 선릉로225, 지하층 비101,102호  (도곡동 527-3, 도곡렉슬상가)",37.4954324,127.05266116
GS25도곡롯데점,서울 강남구 도곡로14길7(도곡1동 547),37.49054088,127.03720815
GS25도곡매봉점,"서울 강남구 논현로30길51, 1층 (도곡2동 419-5, 석진빌딩)",37.48520362,127.04572324
GS25도곡센터점,서울 강남구 남부순환로359길6 (도곡동 959-26),37.48551175,127.03705785
GS25도곡신호점,"서울 강남구 도곡로184, 1층 101호 (도곡1동 544, 신호빌딩)",37.49167896,127.03976053
GS25도곡아카데미점,"서울 강남구 언주로30길21, A동 1층 105호 (도곡동 467-7, 아카데미스위트)",37.48885827,127.05198656
GS25도곡양재점,"서울 강남구 남부순환로351길14, 1층 (도곡1동 954)",37.48572561,127.03455616
GS25도곡역점,"서울 강남구 남부순환로2912, 상가동 1층 104호  (대치동 500, 그랑프리앤상가)",37.49081121,127.05732197
GS25도곡점,서울 강남구 남부순환로2730(도곡2동 411-16),37.48571786,127.04468772
GS25도곡타운점,"서울 강남구 논현로30길7, 1층 일부 (도곡동 515-5)",37.48310908,127.04299096
GS25도곡타워점,"서울 강남구 남부순환로2806, 112호 (도곡동 467-12, 군인공제회관)",37.48926114,127.05278434
GS25도곡푸른점,"서울 강남구 강남대로272,  102동 101호(도곡1동 949-2, 도곡푸르지오)",37.48776639,127.03289028
GS25도림로점,"서울 영등포구 도림로133, 1층 2호 (대림동 1050-10)",37.49306144,126.89679241
GS25도림제일점,서울 영등포구 도신로69 (도림동 251-8),37.50636428,126.90005766
GS25도림행복점,"서울 영등포구 도신로29길8-1, 1층 (도림동 113-12)",37.50928614,126.90517254
GS25도림현대점,서울 영등포구 도신로147 (도림동 76-1),37.50977063,126.90786877
GS25도봉공원점,"서울 도봉구 방학로104, 1층 (방학동 689-23, 법성빌딩)",37.66306527,127.040708
GS25도봉구민회관점,"서울 도봉구 도봉로552, 1층 (창동 303)",37.65407385,127.03860243
GS25도봉구청점,"서울 도봉구 마들로664, 1층 (도봉동 636-12, 킴스타워)",37.66941024,127.04647532
GS25도봉럭키점,"서울 도봉구 도봉로169나길38, 101,102호 (도봉동 597-19)",37.67798085,127.04336146
GS25도봉로점,"서울 도봉구 도봉로642, 1층 (창동 746)",37.66162039,127.04252871
GS25도봉방학로점,"서울 도봉구 방학로33, 1층 코너 (방학동 724-30)",37.66213767,127.04855183
GS25도봉북서울점,"서울 도봉구 도봉로177길26, 1층(도봉1동 564-17)",37.68184843,127.04474027
GS25도봉서원점,"서울 도봉구 마들로724, 상가동 137,139호 (도봉동 657, 도봉한양수자인)",37.67455566,127.04765645
GS25도봉소망점,"서울 도봉구 시루봉로27길23, 1층 (도봉1동 614-24)",37.67230652,127.04251611
GS25도봉신성점,서울 도봉구 도봉로154길23 (도봉동 623-133),37.67133873,127.04539644
GS25도봉쌍문점,"서울 도봉구 도봉로135길24, 1층(쌍문2동 713-45)",37.65903519,127.03929782
GS25도봉으뜸점,"서울 도봉구 도봉로180길6-25, 동아에코빌A 상가동 106호 (도봉동 654)",37.68151459,127.04690994
GS25도봉정의점,"서울 도봉구 노해로49길69-4, 1층 상가 좌측 (쌍문동 137-52)",37.65238216,127.03226662
GS25도봉중앙점,"서울 도봉구 노해로61길4, 1층 (창동 700-72, 리솜하우스)",37.65168743,127.0376586
GS25도봉타운점,서울 도봉구 도봉산3길7 (도봉동 557-1),37.68694506,127.0443461
GS25도선쉐르빌점,"서울 성동구 무학로6길50, 101동 103호 (도선동 69, 성동삼성쉐르빌)",37.56451701,127.03497779
GS25도신초교점,"서울 영등포구 대림로34길25-2, 1층 (대림동 684-14)",37.49973091,126.90084485
GS25도화베네스트점,"서울 마포구 새창로6길43, 지층 (도화동 2-338)",37.540345,126.95183659
GS25도화삼보점,"서울 마포구 도화길43, 101호 (도화동 571, 나눔빌딩)",37.54178143,126.95023227
GS25도화새창점,"서울 마포구 새창로14, 1층(도화동 183-13)",37.54204495,126.95149595
GS25독립문초교점,"서울 종로구 통일로12길24-2, 독립문할인마트 (무악동 46-1734)",37.57366156,126.96056216
GS25독바위역점,"서울 은평구 불광로131, 1층(불광1동 13-31)",37.61854649,126.93278572
GS25독산골드파크3차점,"서울 금천구 시흥대로291, GS25  (독산동 1155, 독산골드파크3차점)",37.45988016,126.89725748
GS25독산골드파크점,"서울 금천구 벚꽃로30, 205동 118호 (독산동 448-13, 금천롯데캐슬골드파크2차)",37.45834032,126.89350483
GS25독산두산로점,"서울 금천구 두산로36, 1층 (102호-103호, 진도아파트 상가) (독산동 1133)",37.46995125,126.89215799
GS25독산문성점,서울 금천구 남부순환로126길69 (독산3동 895-24),37.47738467,126.90761669
GS25독산반수점,서울 금천구 독산로313(독산3동 978-36),37.47485716,126.90323296
GS25독산소망점,서울 금천구 독산로267 (독산동 194-4),37.47062541,126.90260519
GS25독산쌈지점,"서울 금천구 독산로80길13, 1층(독산4동 181-65)",37.47117856,126.90395371
GS25독산우림점,"서울 금천구 가산디지털1로2,  113호(가산동 680, 우림라이온스밸리2차)",37.46683346,126.88830397
GS25독산우시장점,서울 금천구 범안로1201 (독산동 293-21),37.46671847,126.8952579
GS25독산우정점,"서울 금천구 독산로75길34, 1층 (독산동 196-21)",37.46925469,126.90054514
GS25독산정심점,서울 금천구 독산로74길21(독산4동 185-7),37.46869021,126.90379787
GS25독산중앙점,"서울 금천구 독산로306 (독산3동 977-24, 경희태권도학원)",37.47406729,126.90356106
GS25독산초교점,서울 금천구 독산동1050번지,37.46426376,126.90064084
GS25독산푸르지오점,"서울 금천구 독산로108길101, 1층 (독산동 901-14)",37.48033023,126.9094733
GS25독산하이점,서울 금천구 독산로73길33 (독산동 1024),37.4677807,126.89997889
GS25독산한양점,서울 금천구 시흥대로150길21 (독산동 965-26),37.47583709,126.90008693
GS25독산행복점,"서울 금천구 독산로103길30, 1층 (독산동 963-11)",37.47666517,126.90192896
GS25돈암한진점,"서울 성북구 성북로4길52, 한진@상가서관 418-2101(돈암동 609-1)",37.59415451,127.01021503
GS25동교사랑점,서울 마포구 월드컵북로2길57(동교동 158-1),37.55748693,126.9232558
GS25동교타운점,"서울 마포구 동교로25길15, 1층(동교동 201-1)",37.55770526,126.92150966
GS25동교행복점,"서울 마포구 와우산로167, 2층 (동교동 182-8)",37.55585176,126.9307152
GS25동국타운점,"서울 중구 동호로25길15, B1(장충동2가 193-87)",37.55863052,127.00213973
GS25동대문DDP점,"서울 중구 을지로281, 디자인장터 C1호 (을지로7가 2-1)",37.56703853,127.00978156
GS25동대문SK점,"서울 동대문구 사가정로148, 상가1동 106호 107호 (전농동 10)",37.5766091,127.06067931
GS25동대문구청점,서울 동대문구 고산자로28길39 (용두동 39-714),37.57495974,127.04045822
GS25동대문두산점,"서울 동대문구 전농로2길10, 1층 (답십리1동 488-25)",37.5666416,127.05704636
GS25동대문메가점,"서울 동대문구 천호대로241, 102동 202호 (답십리동 999, 청계벽산메가트리움)",37.56986945,127.0494438
GS25동대문배봉점,"서울 동대문구 한천로39길28, 1층 (전농2동 3-57)",37.57838778,127.06681584
GS25동대문쇼핑점,"서울 중구 퇴계로73가길34, 1층 2층 1호 (신당동 251-77)",37.56688923,127.01347375
GS25동대문신동아점,서울 동대문구 무학로26길33 (용두동 122-24),37.57350779,127.032575
GS25동대문신설점,서울 동대문구 한빛로24(신설동 25-1),37.57760409,127.02558205
GS25동대문용두점,서울 동대문구 천호대로31길50(용두동 39-419),37.57559823,127.04141231
GS25동대문장안교점,"서울 동대문구 사가정로260, 1층 (장안동 314-4)",37.57915357,127.07366715
GS25동대문장안점,서울 동대문구 장한로165(장안2동 305-1),37.57512785,127.07162265
GS25동대문정릉천점,"서울 동대문구 왕산로23길89, 상가동 101호 (제기동 252, 이수브라운스톤)",37.582133,127.03394658
GS25동대문지웰점,"서울 동대문구 난계로242, 104호 105호 (신설동 117-12, 신설동지웰홈스)",37.57304761,127.02373955
GS25동대문패션점,"서울 중구 을지로254, 101호 (을지로6가 23, 타임캐슬오피스텔)",37.56598254,127.00635441
GS25동대문한신점,"서울 동대문구 황물로42, 1층 1호 (답십리1동 542-1)",37.57324958,127.04624237
GS25동대후문점,"서울 중구 서애로1길35, 1층(묵정동 29-23, 동국빌딩)",37.56103634,127.00001367
GS25동덕여대사랑점,"서울 성북구 화랑로13길42, 1층 101호(월곡2동 21-56)",37.60511928,127.04176976
GS25동묘역점,"서울 종로구 종로344, 1층(숭인2동 310, 대우디오빌)",37.57283063,127.01605572
GS25동부시장점,"서울 중랑구 봉우재로41, 1층(면목2동 183-24)",37.59079178,127.07784844
GS25동부이촌점,"서울 용산구 이촌로182, 108호 (이촌동 302-68, 기업은행)",37.5211541,126.96733203
GS25동빙고점,서울 용산구 장문로6길97(동빙고동 1-10),37.52605349,126.99632879
GS25동선행복점,"서울 성북구 동소문로27길31, 1층 101호 (동선동4가 295-4, 벨라미아오피스텔)",37.5957135,127.0199557
GS25동성하나점,"서울 강서구 금낭화로23길8, 상가동 104,105,108,109호 (방화동 817)",37.57960511,126.81217953
GS25동소문본점,서울 성북구 성북로2길38(동소문동1가 108),37.58959305,127.007807
GS25동소문제일점,서울 성북구 동소문로2길97(동소문동3가 45),37.58995215,127.01087081
GS25동소문타운점,서울 성북구 동소문로17길12(동소문동6가 138-3),37.59304137,127.01501967
GS25동숭점,서울 종로구 동숭길140(혜화동 201),37.58366487,127.00254161
GS25동여의점,"서울 영등포구 여의대방로65길23, 101호 (여의도동 45-13, 포레스텔빌딩)",37.52025217,126.92879126
GS25동자제일점,서울 용산구 한강대로102길12 (갈월동 1-5),37.5497279,126.97268698
GS25동자플래티넘점,"서울 용산구 한강대로372, C동 108호 (동자동 45, 센트레빌아스테리움서울)",37.55058197,126.97350141
GS25동작대방점,서울 동작구 상도로80(대방동 336-13),37.49954216,126.92934731
GS25동작도서관점,"서울 동작구 장승배기로96,  1층 102호 (노량진2동 310-99)",37.50610673,126.93988534
GS25동작드림점,"서울 동작구 상도로34길18, 1층 (상도2동 29-37)",37.50409309,126.94544446
GS25동작사당점,"서울 동작구 동작대로9길39, 1층(사당1동 1026-38)",37.48058496,126.97933289
GS25동작상도점,서울 동작구 상도로130(상도동 355-6),37.5017584,126.93429195
GS25동작상떼빌점,"서울 동작구 신대방1가길38,  106동 116호 118(신대방1동 719, 상떼빌)",37.48757815,126.9069255
GS25동작서림점,"서울 동작구 사당로215,  1층 111호(사당3동 252-17, 서림테마상가)",37.48462429,126.97235793
GS25동작성대점,"서울 동작구 성대로12길1, 1층 (상도4동 263-8, 상도동다빈모1프라자)",37.49752388,126.93533603
GS25동작센타점,서울 동작구 양녕로28길28 (상도동 212-36),37.49820665,126.94515405
GS25동작신라점,"서울 동작구 시흥대로602, 1층 (신대방1동 686-53)",37.48604166,126.90447158
GS25동작엠코타운점,"서울 동작구 상도로346-1, 상도엠코타운 상가3동 103,104호 (상도동 531)",37.4952761,126.95098537
GS25동작우체국점,서울 동작구 여의대방로22길78 (신대방동 361-55),37.49768506,126.92428471
GS25동작유한점,"서울 동작구 등용로14길44, 1층 (대방동 43-2, 시티모텔)",37.51196381,126.93390932
GS25동작이편한점,"서울 동작구 국사봉2길35, 1층 (신대방동 340-6)",37.49708445,126.92859076
GS25동작정금마을점,"서울 동작구 동작대로189, 1층 102호 (동작동 55-21)",37.4936671,126.9823326
GS25동작중심점,서울 동작구 사당로20나길18 (사당동 318-92),37.48181546,126.97471429
GS25동작한양점,"서울 동작구 노량진로6길59, 1층 (노량진2동 289-88, 이례그린미술원)",37.51047995,126.93622657
GS25동작현대점,"서울 동작구 현충로151, 상가동 B1층 (흑석동 28, 한강현대아파트)",37.507009,126.96955151
GS25두타몰점,"서울 중구 장충단로275, 5층 아가방 (을지로6가 18-12)",37.5687687,127.00872854
GS25둔촌신성점,서울 강동구 진황도로206 (둔촌2동 134-6),37.52797953,127.14365436
GS25둔촌역점,"서울 강동구 양재대로1367, 103호 (성내3동 416-4)",37.52837366,127.13591111
GS25둔촌주공점,서울 강동구 풍성로247 (둔촌2동 163),37.5282085,127.13920537
GS25둔촌프라자점,서울 강동구 천호대로198길32(둔촌2동 611-1),37.53452597,127.14804889
GS25드림타워2점,"서울 구로구 디지털로31길41, 1층 (구로동 197-28, ENC벤처드림타워6차)",37.48515767,126.89277021
GS25등촌NC점,서울 강서구 강서로56가길41(등촌3동 678-2),37.56143777,126.84000634
GS25등촌서낭점,"서울 강서구 화곡로63길125, 1층(등촌3동 663-7, 윤준빌딩)",37.55874959,126.84612594
GS25등촌센트럴점,"서울 강서구 공항대로59다길39, 101동 1층 3호,4호 (등촌동 633-24)",37.55309125,126.86566785
GS25등촌스타점,"서울 강서구 등촌로39길6,  6호(등촌2동 512-7)",37.54558759,126.8621264
GS25등촌월드점,"서울 강서구 공항대로39길74, 상가동 103호 (등촌동 695, 등촌5단지주공아파트)",37.56045879,126.84492245
GS25등촌점,"서울 강서구 화곡로61길100,  101호(등촌3동 662-6)",37.55845202,126.84702467
GS25등촌캐빈점,서울 강서구 공항대로51길17 (등촌동 654-58),37.55514684,126.85738605
GS25등촌타운점,"서울 강서구 공항대로541, 상가 B01호 (염창동 274-17, 센터스퀘어등촌아파트)",37.55072796,126.86633743
GS25등촌한마음점,서울 강서구 공항대로58길32(등촌2동 532-1),37.55039257,126.86238155
GS25등촌한올림점,"서울 강서구 화곡로64길2, 101동 103호 (등촌동 656, 경동미르웰한울림)",37.55725413,126.85355101
GS25등촌현대점,"서울 강서구 등촌로163 (등촌2동 715, 등촌아이파크@주상가동1층105호)",37.54388326,126.86011542
GS25디에이치자이점,"서울 강남구 영동대로22, 상가 827동 S2B1-0211호 (일원동 611-1)",37.49069925,127.07507726
GS25디오센터점,"서울 중구 서소문로38, 111호(중림동 500, 디오센터)",37.56039371,126.96620211
GS25디큐브시티점,"서울 구로구 경인로662, 지하1층 편의점 (신도림동 692, 디큐브시티)",37.50846589,126.88873872
GS25뚝섬본점,"서울 성동구 아차산로38 (성수동1가 656-766, 개풍빌딩)",37.54650611,127.04842782
GS25뚝섬유원지점,"서울 광진구 능동로4길17, 1층 (자양동 553-376)",37.53343218,127.06881324
GS25라마다호텔점,서울 중구 순화동195-1번지 포스코더샵빌딩 1층 112호,37.56013936,126.97215921
GS25래미안포레스트점,"서울 강남구 개포로264, 상가 B동 101호 (개포동 656, 개포래미안포레스트)",37.47751124,127.05502431
GS25로데오점,서울 강남구 선릉로161길31 (신사동 659-9),37.52754249,127.03773969
GS25마곡10단지점,"서울 강서구 마곡중앙1로72, 상가동 104호 (마곡동 747, 마곡엠밸리10단지)",37.55952111,126.81935738
GS25마곡7단지점,"서울 강서구 마곡서로133, 713동 101호 (마곡동 743-4, 마곡엠밸리7단지)",37.56522905,126.82341014
GS25마곡9단지점,"서울 강서구 공항대로103, 마곡엠벨리9단지 판매시설2동 102호,103호 일부 (마곡동 744)",37.56072411,126.81891961
GS25마곡LG사이언스점,"서울 강서구 마곡중앙10로30, 지하1층 (마곡동 770-1, 엘지사이언스파크)",37.56390789,126.83100336
GS25마곡SB점,서울 강서구 마곡동739-3번지 마곡SB타운 1층 110호,37.5670837,126.81875129
GS25마곡SH점,"서울 강서구 공항대로205, 104호 (마곡동 774, 에스에이치빌딩)",37.55975718,126.83040043
GS25마곡더블유점,"서울 강서구 방화대로294,  1층 113호 (마곡동 739-1, 마곡더블유타워)",37.56698539,126.81703227
GS25마곡루체점,"서울 강서구 마곡동로4길23, 102호 (마곡동 797-12, 레지던스루체브릿지호텔)",37.55963414,126.83618605
GS25마곡미르웰점,"서울 강서구 강서로455, 101동 113호 (마곡동 784-2, 마곡경동미르웰)",37.56623319,126.84020365
GS25마곡보타닉점,"서울 강서구 마곡중앙5로6, 109,128,129호 (마곡동)",37.56708489,126.82700319
GS25마곡비즈점,"서울 강서구 마곡중앙5로1길20, 117,118호 (마곡동 757-3)",37.56863892,126.82652603
GS25마곡서브원점,서울 강서구 마곡동279-4번지 서브원사옥 오피스동 B1F,37.56701853,126.82848709
GS25마곡시티점,"서울 강서구 마곡서로170, 109호 (마곡동 758, 마곡시티오피스텔)",37.569295,126.82545167
GS25마곡에이스점,"서울 강서구 마곡동로61, 104호 (마곡동 772-8, 에이스프라자)",37.5606042,126.83313759
GS25마곡에코점,"서울 강서구 공항대로195, 102동 136호 (마곡동 773-3, 힐스테이트에코동익)",37.55989788,126.82914188
GS25마곡오드점,"서울 강서구 강서로429, 122호 (마곡동 784-11, 마곡오드카운티1차)",37.56393836,126.8395714
GS25마곡유림점,"서울 강서구 강서로419, 1층 104호 (마곡동 793, 유림트윈파크)",37.56299765,126.83920115
GS25마곡일성점,"서울 강서구 마곡중앙로161-22, B동 1층 122호 (마곡동 758-2, 마곡일성트루엘플래닛)",37.56861314,126.82574537
GS25마곡파크뷰점,"서울 강서구 마곡중앙6로85, 104호 (마곡동 795-5, 마곡사이언스파크뷰)",37.56023543,126.83685581
GS25마곡퍼스트점,"서울 강서구 마곡중앙로76, 104호 (마곡동 773, 힐스테이트에코마곡역)",37.56037562,126.82734608
GS25마곡힐스테이트점,"서울 강서구 공항대로269-15, 1층 118호 (마곡동 797-14, 힐스테이트 에코 마곡)",37.55959936,126.83722789
GS25마로니에점,"서울 종로구 대학로8가길111, 1층 (동숭동 1-100)",37.58098792,127.00350571
GS25마장세림점,"서울 성동구 마장로40길12-1, 18호 (마장동 793-1)",37.56505147,127.04307559
GS25마장스타점,서울 성동구 고산자로22길8 (마장동 512-7),37.56895864,127.03822593
GS25마장역점,서울 성동구 마장로301 (마장동 772-4),37.56644721,127.04296718
GS25마장중앙점,서울 성동구 마조로15길5 (마장동 800-20),37.56361033,127.04092074
GS25마장힐스점,서울 성동구 마장로280 (마장동 775-1),37.56535707,127.04076251
GS25마천공원점,서울 송파구 거마로24길5 (마천2동 47-7),37.49990836,127.14820485
GS25마천센타점,서울 송파구 마천로51길22 (마천동 178-85),37.49659343,127.15209893
GS25마천우방점,"서울 송파구 성내천로211, 104동 102호 (마천2동 576, 마천우방아파트)",37.50044487,127.1513881
GS25마포LG점,"서울 마포구 마포대로155, 지하1층(공덕동 275, 마포LG빌딩)",37.54820837,126.95355981
GS25마포공덕점,서울 마포구 마포대로8길9(공덕동 249-12),37.54654426,126.95387731
GS25마포구청역점,"서울 마포구 월드컵로196, 1층(성산2동 591-4, 대명비첸시티)",37.56478557,126.90273081
GS25마포금솔점,"서울 마포구 만리재옛길46, 1층 (신공덕동 5)",37.54781467,126.95692638
GS25마포당인점,서울 마포구 토정로13-1(합정동 376-27),37.54582722,126.91241268
GS25마포도화점,서울 마포구 도화2길2(도화동 344),37.54035207,126.9485776
GS25마포독막로점,"서울 마포구 독막로26길10, 1층 (신수동 354-1, 수담)",37.546925,126.9349846
GS25마포만리재점,서울 마포구 만리재옛길103(아현동 407-1),37.55137109,126.96173193
GS25마포사랑점,"서울 마포구 마포대로4라길32, 지1층, 1층  (마포동 292-64)",37.53697143,126.94636206
GS25마포성산로점,서울 마포구 월드컵북로204 (성산2동 148-51),37.56897281,126.90633703
GS25마포성산점,"서울 마포구 월드컵북로121, 1층 (성산1동 53-2)",37.56375116,126.91266151
GS25마포성지점,"서울 마포구 도화동성지빌딩538, 106 107호",37.54125986,126.94630171
GS25마포세울점,"서울 마포구 백범로1길84, 1층 (노고산동 19-1)",37.55584669,126.94115041
GS25마포신수점,"서울 마포구 광성로4길11-10, 1층(신수동 88-16)",37.54936638,126.93793754
GS25마포역점,"서울 마포구 토정로320, 1층 (용강동 51-8, 백남빌딩)",37.53935539,126.94391832
GS25마포연남점,"서울 마포구 성미산로29안길25, 1층 전체 (연남동 241-87)",37.5655079,126.92344598
GS25마포영진점,"서울 마포구 마포대로63-8 (도화동 173, 삼창프라자1층3-1호)",37.54221105,126.94788386
GS25마포왕연점,"서울 마포구 모래내로3길2, 상가동 102호 (성산동 597, 제)",37.56484955,126.9057408
GS25마포풍림점,"서울 마포구 마포대로127,  104호(공덕동 404, 풍림VIP텔)",37.54621358,126.9521505
GS25마포하이엘점,"서울 마포구 마포대로173,  107호(공덕동 463, 현대하이엘)",37.54979252,126.95438644
GS25마포한강점,"서울 마포구 월드컵로3길14, 208호 209호 (합정동 473, 마포한강2차푸르지오)",37.55121064,126.91189309
GS25마포한림점,서울 마포구 포은로67(망원1동 394-86),37.5532465,126.9059897
GS25마포한우물점,서울 마포구 월드컵로16길3(서교동 440-15),37.55707442,126.9097253
GS25마포허브점,"서울 마포구 마포대로204, 105호 (아현동 737, 마포에스케이허브블루)",37.55199169,126.9564947
GS25마포현대점,"서울 마포구 토정로233, 1층 (신수동 442-1)",37.5441549,126.93655169
GS25망리단길점,"서울 마포구 희우정로12길11, 1층 일부 (망원동 398-14)",37.55377433,126.90363924
GS25망우금호점,"서울 중랑구 망우로504, 1층 (망우동 133-7, 한양빌딩)",37.60025005,127.10798023
GS25망우미디어점,"서울 중랑구 망우로73길46, 1층 (망우본동 342-1)",37.60247689,127.10338961
GS25망우베스트점,서울 중랑구 용마산로116길16 (망우동 363-8),37.59927155,127.10133302
GS25망우본점,서울 중랑구 망우로67길7 (망우동 358-7),37.60046759,127.10102419
GS25망우으뜸점,"서울 중랑구 망우로68길56, 상가 1층 (망우동 364-39, 빙그레슈퍼)",37.59750213,127.10089
GS25망우제일점,서울 중랑구 용마산로112길37 (망우본동 366-4),37.59872217,127.10255136
GS25망우중앙점,서울 중랑구 망우로411(망우본동 488-4),37.59957864,127.09788662
GS25망우한마음점,"서울 중랑구 용마산로99길9, 1층 코너(망우3동 531-24)",37.59185324,127.09743635
GS25망우한일점,"서울 중랑구 겸재로61길9, 1층 (망우3동 525-1, 한일슈퍼)",37.59056233,127.09476831
GS25망원1호점,서울 마포구 마포나루길435 (망원동 205-5),37.55337772,126.89781653
GS25망원2호점,서울 마포구 마포나루길407 (망원동 205-5),37.55337772,126.89781653
GS25망원그린점,서울 마포구 방울내로76-1(망원2동 475-52),37.56031833,126.90390555
GS25망원나래길점,서울 마포구 월드컵로11길14(망원1동 379-41),37.55478965,126.91014339
GS25망원마젤란점,서울 마포구 방울내로9안길1 (망원동 470-3),37.56179506,126.90283127
GS25망원명품길점,"서울 마포구 월드컵로23길25, 1층 (망원1동 57-376)",37.55669607,126.90778411
GS25망원솔루체점,"서울 마포구 방울내로1길24, 1층 일부호 (망원동 439-1)",37.55925643,126.89823927
GS25망원오리엔탈점,"서울 마포구 방울내로9안길71, 101,102,103호 (망원동 466-1)",37.56021495,126.89957206
GS25망원중앙점,서울 마포구 월드컵로126(성산1동 260-39),37.55952934,126.90724474
GS25망원포은로점,"서울 마포구 포은로98, 1층 코너면 (망원동 411-41)",37.55573364,126.90504791
GS25망원하늘점,"서울 마포구 망원로3길8, 1층 (망원2동 421-30)",37.55712598,126.90167738
GS25망원희망점,서울 마포구 희우정로16길7(망원1동 406-16),37.55432007,126.90225049
GS25먹골보람점,서울 중랑구 공릉로2길8(묵1동 176-1),37.61184395,127.07833611
GS25먹골역점,서울 중랑구 동일로157길5(묵2동 244-144),37.60976406,127.07737639
GS25먹골중앙점,서울 중랑구 동일로156길10(묵1동 122-347),37.60976566,127.07873552
GS25메가스퀘어점,"서울 강동구 고덕로399, 144호 (고덕동 210-1, 고덕센트럴푸르지오)",37.55765105,127.17011686
GS25면목겸재점,"서울 중랑구 겸재로50길52, 1층 (면목동 71-23)",37.58882959,127.09323804
GS25면목공원점,"서울 중랑구 중랑천로10길20, 1층 (면목동 186-21)",37.59168195,127.07415733
GS25면목금성점,"서울 중랑구 봉우재로20가길27, 1층 (면목동 134-8)",37.59125123,127.08246273
GS25면목금호점,"서울 중랑구 면목로40길44, 1층 101,102호 (면목7동 582-33, 성일빌라)",37.5779222,127.08911348
GS25면목동원점,"서울 중랑구 동일로96길46, 1층 (면목동 157-2, 대화슈퍼)",37.58464711,127.08253247
GS25면목동일점,서울 중랑구 동일로95길9 (면목동 172-58),37.58473699,127.07903274
GS25면목두성점,서울 중랑구 겸재로9길54 (면목동 179-98),37.58885004,127.07842723
GS25면목라온점,서울 중랑구 동일로91길20 (면목동 172-84),37.58305634,127.07843072
GS25면목본점,"서울 중랑구 면목로432, 1층 야채왕 우리농산물마트 (면목동 121-26)",37.59045956,127.08727353
GS25면목샘터점,"서울 중랑구 면목로21길9, 1층 (면목동 398-1)",37.57238033,127.08323768
GS25면목서일2점,서울 중랑구 용마산로96길35 (망우동 436-27),37.59000347,127.09945158
GS25면목서일점,서울 중랑구 용마산로94길31 (면목3.8동 46-12),37.58887962,127.09859324
GS25면목수성점,"서울 중랑구 봉우재로26길32, 1층 (면목동 138-3, 고문안마트)",37.59094429,127.08470852
GS25면목스타점,서울 중랑구 면목로49길63 (면목동 592-1),37.58285498,127.0849774
GS25면목역점,서울 중랑구 겸재로169-1 (면목동 120-22),37.58829917,127.08638275
GS25면목점,"서울 중랑구 면목로341, 경남상가(면목3.8동 497-7)",37.58237576,127.08825535
GS25면목제일점,"서울 중랑구 답십리로77길127, 101호 (면목동 345-1, 동일리치빌)",37.57730096,127.08103763
GS25면목지구점,"서울 중랑구 겸재로15길44, 1층 (면목동 140-52)",37.5882999,127.0818309
GS25면목타운점,"서울 중랑구 겸재로24길9, 1층 (면목동 149-12)",37.58658135,127.0821464
GS25면목퍼스트점,서울 중랑구 답십리로87길17 (면목동 393-127),37.57188285,127.08531543
GS25면목하늘점,서울 중랑구 면목로35길40(면목7동 661-62),37.57900828,127.08391497
GS25면목한성점,서울 중랑구 면목로39길8(면목7동 634-10),37.57975422,127.08715515
GS25면목한신점,서울 중랑구 겸재로3길54 (면동동 178-30),37.58838682,127.07680243
GS25면목행복점,"서울 중랑구 면목로54길45, 1층 (면목동 430-33)",37.58342416,127.09100519
GS25면목행운점,서울 중랑구 겸재로54길38 (면목동 106-38),37.58760942,127.09157705
GS25면목황금점,"서울 중랑구 용마산로81길13, 1층 (면목동 64-1)",37.58514674,127.09355445
GS25명덕사랑점,"서울 강서구 강서로47길36, 1층 (내발산동 681-17)",37.55294654,126.83416239
GS25명동IB점,서울 중구 명동8가길22 (충무로2가 63-5),37.56158528,126.98619734
GS25명륜성대점,서울 종로구 명륜길2(명륜1가 15),37.58789405,126.996552
GS25명륜스타점,"서울 종로구 대학로11길23, 102-3,4호(명륜4가 113-1, 스타시티빌딩)",37.58206131,127.0004458
GS25명륜아남점,서울 종로구 혜화로9(명륜1가 46-18),37.58641975,127.00013842
GS25명일센트럴점,"서울 강동구 양재대로134길26, 1층 (명일동 342-1)",37.54756919,127.14499203
GS25명일점,서울 강동구 구천면로427(명일1동 315-13),37.55056012,127.1461575
GS25명일주공점,"서울 강동구 구천면로476, 상가동 122호 (명일2동 257, 주공9단지)",37.54788097,127.15073746
GS25명일청솔점,"서울 강동구 동남로71길20 (명일2동 48-15, 청솔빌딩)",37.55197582,127.15507088
GS25명일타운점,"서울 강동구 구천면로424, 113,114호 (명일1동 325-11, 명일메가타운)",37.55031243,127.14554919
GS25명지가좌로점,"서울 은평구 가좌로7가길25-55, 1층(응암3동 247-102)",37.58400046,126.92183238
GS25명지송정점,서울 서대문구 거북골로10 (홍은동 401-40),37.58110922,126.92590462
GS25명지장학점,"서울 서대문구 명지대길46, 1층 전체 (홍은동 421-2)",37.58221048,126.92414522
GS25명지점,서울 서대문구 거북골로37(남가좌2동 324-50),37.57926087,126.92379141
GS25목3동점,"서울 양천구 목동중앙북로8라길14, 1층 (목동 624-9)",37.54639371,126.86443401
GS25목동10단지점,"서울 양천구 목동서로400, A동 101호 (신정동 311, 목동신시가지아파트10단지)",37.51703682,126.85871401
GS25목동13단지점,"서울 양천구 목동동로100, C상가 106호, 117호 (신정동 327, 목동신시가지아파트13단지)",37.51416893,126.86499035
GS25목동4단지점,"서울 양천구 목동서로130 (목5동 904, 목동신시가지아파트4단지)",37.53182904,126.87154525
GS25목동고목점,"서울 양천구 목동중앙본로26, 1층(목2동 751-2)",37.53898913,126.87027187
GS25목동금강점,"서울 양천구 목동중앙로89, 112호,113호,114호 (목동 753-12, 로얄빌딩)",37.5372653,126.87185936
GS25목동금호점,"서울 양천구 오목로337-10,  104호(목1동 406-271, 소망빌딩)",37.5252523,126.87541164
GS25목동낙원점,"서울 양천구 목동중앙본로7가길65, 1층 (목동 318-116)",37.5424671,126.86650779
GS25목동대일점,"서울 양천구 목동중앙남로11길26, 1층 (목3동 719-27)",37.53934842,126.86451824
GS25목동드웰점,"서울 양천구 은행정로5길24-1, 1동 1층 102호 (신정동 1027-30)",37.5211024,126.85704569
GS25목동라벨라점,"서울 양천구 목동서로383, 102호, 103호 (신정동 323-6)",37.51590129,126.86149138
GS25목동리치점,"서울 양천구 목동중앙북로7가길61, 106호(목3동 613-1, 목동 RICH SQUARE)",37.54971587,126.86415727
GS25목동문화점,서울 양천구 목동중앙본로74-1 (목동 30-16),37.54252298,126.86951696
GS25목동미소점,"서울 양천구 목동중앙북로18길26, 101호/102호 (목동 525-25)",37.54509857,126.87503434
GS25목동법무점,"서울 양천구 목동중앙본로18길39, 1층 (목동 231-98)",37.54117874,126.87122329
GS25목동법원점,"서울 양천구 목동로9길1, 1층 일부 (신정동 1009-7)",37.52289405,126.86437172
GS25목동베스트점,"서울 양천구 목동중앙본로27길37, 1층 (목동 553-21)",37.54429593,126.86835858
GS25목동본점,"서울 양천구 목동남로4길6-23, 우성2차아파트상가 B동 지하1층 (신정동 337)",37.50778712,126.86661392
GS25목동삼익점,"서울 양천구 목동동로12길45, 상가 1층 (목1동 933, 목동삼익아파트)",37.52283039,126.87655665
GS25목동센트럴점,"서울 양천구 목동서로349(신정6동 321-6, 센트럴빌딩)",37.51748048,126.86548317
GS25목동수정점,"서울 양천구 목동중앙남로5, 1층 (목동 772-5)",37.53503178,126.86914353
GS25목동스위트점,"서울 양천구 목동서로65,  103호(목5동 907-5)",37.53614119,126.87871048
GS25목동스퀘어점,"서울 양천구 목동동로130, B동 상가 19호, 20호, 22호 (신정동 329)",37.51629339,126.87042181
GS25목동시장점,"서울 양천구 목동중앙남로10길19, 1층 (목동 740-32)",37.53839424,126.86742941
GS25목동아람점,"서울 양천구 목동중앙북로16길16, 1층 (목동 527-15, 목동오성드림빌)",37.54556257,126.87361283
GS25목동어울림점,"서울 양천구 목동중앙서로33, 1층 (목동 775-31)",37.5330256,126.8675898
GS25목동역점,"서울 양천구 목동로219, 104호 (신정동 899-5)",37.52795237,126.86379724
GS25목동제일점,"서울 양천구 목동서로280,  상가 117호(신정6동 314, 목동8단지아파트)",37.52132063,126.86754049
GS25목동중앙점,"서울 양천구 목동중앙북로60, 106호 (목동 502-1, 신화타워아파트)",37.54694892,126.8697104
GS25목동칸타빌점,"서울 양천구 목동중앙서로8길23, 1층 (목동 803-1)",37.53162605,126.86634378
GS25목동타워점,"서울 양천구 목동서로221, 106호 (목동 923-15, 굿모닝탑)",37.5275859,126.87068146
GS25목동파크점,"서울 양천구 목동남로4길56, 1층 내 (신정동 171-25)",37.50916432,126.86740747
GS25목동퍼스트점,"서울 양천구 목동서로38, B상가 3개 호실 (목동 901, 목동신시가지아파트1단지)",37.53803225,126.88144307
GS25목동한가람점,"서울 양천구 목동동로435, , 화성프라자 101호, 102호 (목동 909-5)",37.53738867,126.88484721
GS25목동햇살점,"서울 양천구 목동중앙남로14길1, 1층 (목동 715-8)",37.5404674,126.86563283
GS25목동현대점,"서울 양천구 오목로300,  205동 122호(목1동 961, 현대하이페리온)",37.52484086,126.87006668
GS25목동호반써밋점,"서울 양천구 중앙로29길11, 지하2층 101호, 103호  (신정동 1150-41, 호반써밋목동)",37.51645743,126.85285196
GS25목동홍익점,"서울 양천구 목동중앙서로6, 1층 (목4동 794-1)",37.53235663,126.86454506
GS25목동희망점,"서울 양천구 오목로322, 1층(목1동 405-282, 보성빌딩)",37.52456255,126.87300098
GS25무교YG타워점,"서울 중구 남대문로9길40, 111호 (다동 155, YG타워)",37.56713019,126.98032652
GS25무역센타점,"서울 강남구 테헤란로87길25,  1층 13호(삼성1동 154-13)",37.50943411,127.05820761
GS25무학여고점,"서울 성동구 고산자로201, 1층 좌측일부 (행당2동 319-23, 서정대내과)",37.55803679,127.03366921
GS25묵동사랑점,서울 중랑구 공릉로68(묵1동 318-1),37.61640447,127.07965041
GS25묵동사자점,"서울 중랑구 중랑역로239, 1층 (묵동 233-106, 명사약국)",37.61493671,127.07516035
GS25묵동신안점,"서울 중랑구 공릉로2길47, 상가동 101호,102호  (묵1동 381, 신안1차아파트)",37.61283774,127.08098561
GS25묵동아이파크점,"서울 중랑구 동일로163길40, 1층(묵2동 237-66, 이레교회)",37.61186242,127.07493792
GS25묵동이편한점,"서울 중랑구 숙선옹주로9길45-8, 1층 (묵동 50-3, 환진힐타운)",37.61712774,127.08343616
GS25묵동제일점,"서울 중랑구 동일로143길24 (묵2동 250-39, 적순빌딩)",37.60535679,127.07722697
GS25묵동중앙점,서울 중랑구 동일로151길29 (묵동 246-1),37.60789049,127.07630092
GS25묵동하늘점,서울 중랑구 숙선옹주로5길28 (묵동 60-4),37.61574809,127.08098378
GS25묵동현대점,서울 중랑구 묵동377 세원아파트상가동 1호2호,37.60922648,127.07431365
GS25문래LG점,서울 영등포구 당산로34(문래동3가 55-5),37.51742243,126.89644517
GS25문래공원점,서울 영등포구 도림로441-1 (문래동2가 15-1),37.51441542,126.89381991
GS25문래그랜드점,"서울 영등포구 선유로9나길22, 1층 (문래동5가 19-12, 전일빌딩)",37.51573732,126.88587081
GS25문래동국점,"서울 영등포구 선유로76, 101호 (문래동3가 84-2, 동국메뜨리앙)",37.52065905,126.8899154
GS25문래미원점,"서울 영등포구 문래로38, 102호,103호 (문래동6가 54, 문래동미원아파트)",37.51986895,126.88638632
GS25문래센터점,"서울 영등포구 경인로82길3-4,  104호(문래동1가 39, 센터플러스)",37.51209375,126.89703265
GS25문래승호점,"서울 영등포구 경인로77길14, 1층 (문래동2가 40-6, 영문빌딩)",37.51300999,126.89287919
GS25문래시티점,"서울 영등포구 경인로775, 129호 (문래동3가 55-20, 에이스하이테크시티)",37.51466766,126.89863496
GS25문래신안점,서울 영등포구 문래동4가41 신안인스빌단지내상가 1층 103,37.51424013,126.88858523
GS25문래에이스점,"서울 영등포구 경인로775, 112호 (문래동3가 55-20, 에이스하이테크시티)",37.51466766,126.89863496
GS25문래역점,"서울 영등포구 당산로26,  상가 103호(문래동3가 54, 문래자이아파트)",37.51683941,126.89480221
GS25문래영시티점,서울 영등포구 문래로28길25 (문래동3가 55-18),37.51608385,126.89976796
GS25문래트리플렉스점,"서울 영등포구 문래북로116, 103호 (문래동3가 46, 트리플렉스)",37.51943789,126.8980671
GS25문래한신점,서울 영등포구 영등포로12길7 (양평동1가 14-1),37.52163314,126.88810225
GS25문래현대점,"서울 영등포구 문래동3가83-3 4 대동오피스텔 107,108 호",37.51998052,126.89058158
GS25문정SK1호점,"서울 송파구 법원로128, 지하1층 B동 G115호 (문정동 642-3)",37.48647872,127.11942114
GS25문정바른점,서울 송파구 새말로8길27(장지동 76-1),37.48027234,127.1269677
GS25문정비지니스A동점,"서울 송파구 법원로11길25, A동 120호 (문정동 645, 문정비지니스)",37.48524036,127.11648444
GS25문정비지니스B동점,"서울 송파구 법원로11길25, B동 130호 (문정동 645, 문정비지니스)",37.48524036,127.11648444
GS25문정비지니스C동점,"서울 송파구 법원로9길26, C동 118호 (문정동 645-2, 에이치비지니스파크)",37.48410043,127.11707454
GS25문정센타점,서울 송파구 새말로5길6 (문정1동 68-21),37.48328334,127.12472777
GS25문정시영점,"서울 송파구 송이로31길52, 상가동 104호 (문정동 145, 문정시영아파트)",37.49052552,127.13542002
GS25문정아이파크점,"서울 송파구 법원로4길6, 133호 (문정동 652-5)",37.48258822,127.12212396
GS25문정에코점,"서울 송파구 정의로7길13, 105호 104호일부 (문정동 639-5)",37.48510664,127.11426977
GS25문정제일점,"서울 송파구 동남로6길17, 1층(문정1동 25-6)",37.48886371,127.12510368
GS25문정중앙점,"서울 송파구 문정로4길10-30, 1층(문정1동 61-7)",37.48551686,127.12457733
GS25문정테라타워점,"서울 송파구 송파대로167, 문정역 테라타워1 A동 G133호 (문정동 651)",37.48483531,127.12137399
GS25문정파트너스점,"서울 송파구 법원로90, 105호 일부 (문정동 651-15)",37.48338422,127.12132314
GS25문정현대A동점,"서울 송파구 법원로11길11, 문정현대지식산업센터1-1 A동 1층 113호 (문정동 644)",37.484822,127.1183777
GS25문정현대C동점,서울 송파구 문정동644-2번지,37.48535174,127.11933261
GS25문정힐스테이트점,"서울 송파구 법원로4길10, 129호 130호일부 (문정동 652-4)",37.48270795,127.12247307
GS25미근제일점,서울 서대문구 통일로105(미근동 198),37.56430781,126.96764216
GS25미아가온,"서울 강북구 솔매로7길37, 외 4필지  1층 (미아동 791-1344)",37.62667255,127.01447407
GS25미아길목점,"서울 강북구 솔샘로64길7, 1층 (미아동 460-2)",37.61686091,127.02758462
GS25미아도봉로점,"서울 강북구 도봉로39길15, 1층 (미아동 316-13)",37.62244934,127.02564269
GS25미아벽산점,"서울 강북구 솔샘로167, 상가동 지하2층 215,216,217,218호  (미아동 1354-5, 벽산라이브파크)",37.61994163,127.01122125
GS25미아보람점,서울 강북구 도봉로46길9(미아동 125-40),37.62468051,127.02741479
GS25미아사거리점,"서울 강북구 도봉로53길45, 1층 (미아동 224-30)",37.62630334,127.02316804
GS25미아삼거리점,"서울 강북구 도봉로8길22, 1층 (송중동 860-196)",37.61237709,127.03127883
GS25미아성암길점,서울 강북구 도봉로27길56 (미아동 324-95),37.61956343,127.02532919
GS25미아솔샘길점,"서울 강북구 솔샘로274, 1층 (송천동 679)",37.61867849,127.02291666
GS25미아송중점,"서울 강북구 오현로10, 1층 (송중동 90-33)",37.61633195,127.03119355
GS25미아송천점,"서울 강북구 도봉로13길78, 1층 (미아동 450-60)",37.6153899,127.02621055
GS25미아신일점,"서울 강북구 도봉로53길8, 1층 (미아동 207-6, 명화빌딩)",37.62702302,127.02520913
GS25미아아린점,"서울 강북구 도봉로23길18, 1층 (미아동 327-13, 외 1필지)",37.61910612,127.02778193
GS25미아오현,"서울 강북구 오현로6길61, 1층 (미아동 54-10)",37.6136869,127.03277963
GS25미아운정그린점,"서울 강북구 도봉로72길23, 1층 2칸 (미아동 165-70)",37.63225015,127.02534479
GS25미아월드,"서울 강북구 삼양로38길38, 1층 (미아동 320-28)",37.62119079,127.02272518
GS25미아위브점,"서울 강북구 삼양로27길43, 상가 지하층 4호, 5호 (미아동 811-9)",37.61854546,127.01882917
GS25미아유정점,"서울 강북구 도봉로18길22, 1층 (미아동 100-43)",37.6178708,127.03095836
GS25미아캐슬점,서울 강북구 미아동4번지 꿈의숲롯데캐슬아파트 단지내상가 101동 8호,37.61715269,127.03569116
GS25미아타운점,서울 강북구 도봉로13길22 (미아동 62-21),37.61514416,127.02919275
GS25미아퍼스트점,"서울 강북구 도봉로61길31, 1층 (미아동 222-10)",37.62841228,127.02323107
GS25미아풍림점,"서울 강북구 삼양로19길109, 401동 1층 104호 (미아동 1357-4, 삼각산아이원아파트)",37.61609157,127.01737756
GS25미아행운점,"서울 강북구 인수봉로32, 1층 (미아동 791-2003)",37.62280613,127.01327902
GS25미아희망점,서울 강북구 도봉로61길7 (미아동 206-7),37.62868433,127.02453035
GS25반포1점,"서울 서초구 고무래로8길9, 1층(반포4동 54-3)",37.5019686,127.01023441
GS25반포2점,서울 서초구 주흥길12(반포1동 741),37.50450686,127.02071943
GS25반포래미안점,"서울 서초구 서초중앙로224, 132,133,134호 (반포동 1341, 한양상가)",37.50146829,127.01289882
GS25반포사랑점,"서울 서초구 주흥길27, 1층 (반포동 728-30)",37.50543109,127.01916915
GS25반포서래마을점,"서울 서초구 동광로43길51-13, B1층 (반포동 551-32)",37.49722994,127.00070681
GS25반포스타점,"서울 서초구 주흥9길14-18, 1층 (반포동 716-3, 반포동빌딩)",37.50755716,127.01911871
GS25반포제일점,서울 서초구 사평대로53길103(반포1동 718-9),37.50872483,127.01975946
GS25반포주흥점,"서울 서초구 주흥13길17, 1층 (반포동 717)",37.50837195,127.01849726
GS25반포타운점,서울 서초구 사평대로53길36(반포1동 734-22),37.50605274,127.02133263
GS25반포희망점,서울 서초구 사평대로55길72 (반포동 735),37.50715397,127.02156708
GS25발산1단지점,"서울 강서구 강서로47길108,  102호(내발산동 742, 수명산파크1단지)",37.55424903,126.83011304
GS25발산사랑점,"서울 강서구 우장산로2길21, 1층 (내발산동 670-50)",37.55381018,126.83768
GS25발산아이파크점,"서울 강서구 마곡중앙8로90, 112호 (마곡동 795-2, 마곡아이파크)",37.56072704,126.83736882
GS25발산에너지점,서울 강서구 강서로56길50 (등촌동 671-3),37.55919997,126.84151242
GS25발산파크점,"서울 강서구 공항대로261, 1층 106호 (마곡동 797-4, 발산파크프라자)",37.55914167,126.83649931
GS25발산행복점,"서울 강서구 강서로50길16, 1층 (내발산동 665)",37.55513917,126.83813471
GS25방배E푸른점,"서울 서초구 서초대로27길57, 1층 102호 (방배동 850-3)",37.49043715,126.99341312
GS25방배고려점,"서울 서초구 방배천로160, 1층 101호(서초3동 830-3, 고려빌딩)",37.48927826,126.98749201
GS25방배내방점,"서울 서초구 서초대로122, , 17번지 1층(방배1동 895-16)",37.48797955,126.99579811
GS25방배래미안점,"서울 서초구 효령로4길56-16, 1층 101호 1층 전체  (방배동 484-1, 로얄그린빌라트)",37.47559511,126.99005088
GS25방배브라운점,서울 서초구 방배로146 (방배동 898-6),37.48694025,126.99437596
GS25방배서래점,"서울 서초구 동광로88, 1층 101호 (방배4동 807-2, 부운빌딩)",37.49327374,126.99215373
GS25방배서문점,"서울 서초구 서초대로1길37, 1층 (방배동 1948)",37.48944828,126.98315878
GS25방배아트자이점,"서울 서초구 명달로9길57, 방배아트자이 103동 상가 1층 (방배동 992-1)",37.48017535,127.00205333
GS25방배아트힐점,"서울 서초구 남부순환로2311-12,  상가 103호(방배3동 1008-2, 래미안방배아트힐)",37.47763318,127.00511719
GS25방배역점,"서울 서초구 방배로102-4, 1층 (방배동 908-33, 정원빌딩)",37.48333036,126.99688928
GS25방배우성점,"서울 서초구 과천대로946, 109, 110, 112호 (방배동 2525)",37.4742783,126.98255033
GS25방배이수점,"서울 서초구 동작대로112,  104호 (방배동 3000-1, 대우슈페리움2차)",37.4866064,126.982745
GS25방배제일점,서울 서초구 방배로19길13(방배1동 926-5),37.48504738,126.99429957
GS25방배천로점,"서울 서초구 방배천로6길32-2, 1층 (방배동 467-10)",37.47919551,126.98434922
GS25방배카페본점,"서울 서초구 방배중앙로166-1, 1층 (방배동 777-1)",37.49396308,126.98636576
GS25방배타운점,"서울 서초구 방배천로2안길125, 1층(방배2동 437-15)",37.48258918,126.98396408
GS25방배푸른점,"서울 서초구 효령로27길11, 1층(방배1동 915-5)",37.48132408,126.99512964
GS25방배한성점,서울 서초구 방배중앙로27길25 (방배동 766-3),37.49511664,126.98429197
GS25방배홈타운점,"서울 서초구 동광로3길21, 1층(방배본동 787-1)",37.4919175,126.98424482
GS25방이기숙사점,"서울 송파구 가락로36길17,  102호 (방이동 130)",37.50945084,127.11996575
GS25방이대성점,서울 송파구 오금로23길8 (방이동 124-31),37.50906046,127.11595492
GS25방이도곡점,서울 송파구 올림픽로32길59(방이2동 107-3),37.5122085,127.11279582
GS25방이마천로점,서울 송파구 마천로22 (방이1동 213),37.50944937,127.12340434
GS25방이번영점,서울 송파구 위례성대로18길28(방이1동 203-4),37.51009096,127.12486729
GS25방이삼형점,"서울 송파구 백제고분로50길4, 1층 (방이동 149-13, 삼형빌딩)",37.51427222,127.11523736
GS25방이센타점,서울 송파구 가락로39길21(방이2동 143),37.51222992,127.11685639
GS25방이센트럴점,"서울 송파구 백제고분로48길40, 1층 (방이동 123)",37.51021426,127.11721948
GS25방이중앙점,"서울 송파구 오금로11길6, 1층(방이2동 64)",37.51422653,127.10796442
GS25방이진실점,서울 송파구 올림픽로32길14(방이2동 34-9),37.51485606,127.10899762
GS25방이파크점,"서울 송파구 위례성대로18길3, 1층 (방이동 186-19)",37.51168791,127.12636437
GS25방이한마음점,"서울 송파구 가락로42길17, 1층(방이1동 164-18)",37.51207606,127.12159771
GS25방학ESA점,"서울 도봉구 도봉로150길43, 110호 (방학동 716-5, ESA2단지)",37.66645675,127.04559499
GS25방학공원점,서울 도봉구 시루봉로15길33(방학2동 612-9),37.66841788,127.03194509
GS25방학명문점,"서울 도봉구 도당로133, 1층 (방학동 657-12)",37.66747463,127.04111598
GS25방학본점,"서울 도봉구 방학로2길40, 1층 (방학동 682-20)",37.66472557,127.041004
GS25방학성원점,서울 도봉구 도당로6길28(방학1동 264-8),37.66149839,127.03639856
GS25방학신동아점,"서울 도봉구 방학로12길53, 1층 101,102,105호  (방학동 738, 신동아아파트상가동)",37.6633889,127.0285081
GS25방학우성점,"서울 도봉구 해등로305, 110동 상가 B05호 전체, B01호일부 (방학동)",37.65675495,127.02168122
GS25방학이수점,서울 도봉구 도봉로146길40 (방학동 713-37),37.66411119,127.04523965
GS25방학점,서울 도봉구 시루봉로219(방학2동 603-28),37.6681124,127.03425007
GS25방학청정,"서울 도봉구 도당로9길66, 1층 (방학동 305-9)",37.66284999,127.03090665
GS25방학타운,"서울 도봉구 시루봉로22길23, 1층 (방학동 644)",37.66881747,127.03783418
GS25방학테라디움점,"서울 도봉구 도봉로150길8, 이안테라디움 방학역 107호(전체), 106호(일부) (방학동 707)",37.66585195,127.04323378
GS25방학효성점,"서울 도봉구 방학로171,  1층 3호(방학3동 670)",37.66214822,127.03322793
GS25방화5단지점,"서울 강서구 금낭화로287-19, 제상가1동 104,107,108호 (방화동 814)",37.57731607,126.81034792
GS25방화가온점,"서울 강서구 양천로11길14, 1층 (방화1동 485-3, 월드음악학원)",37.57390697,126.81002858
